id,name,area,address,postcode,lon,lat,phone,capacity,women,usage,multi,theme,management,website,email,phone_enhanced,facebook,instagram,youtube,twitter,linkedin,contact_page,MuslimsInBritainData
2046,Muslim Prayer Room,London,116B Bow Rd,E3 3AA,-0.019133,51.528062,Unavailable,Unavailable,not available,not available,False,not available,not available,Unavailable,Unavailable,not available,Unavailable,Unavailable,Unavailable,Unavailable,Unavailable,Unavailable,False
2183,The Fazilat Masjid (Mosque),Nottingham,46 Musters Rd,NG2 7PR,-1.1333235,52.9343222,Unavailable,Unavailable,not available,not available,False,not available,not available,Unavailable,Unavailable,not available,Unavailable,Unavailable,Unavailable,Unavailable,Unavailable,Unavailable,False
2403,Jummah Salah in Muslim Prayer Room,Chorley,Unavailable,Unavailable,-2.6339861,53.6656697,+44 1257 247171,Unavailable,not available,J,False,not available,not available,https://www.lancsteachinghospitals.nhs.uk/our-services?service=14,recruit@lthtr.nhs.uk,not available,https://www.facebook.com/LancsHospitals/,https://www.instagram.com/lancshospitals/,https://www.youtube.com/user/LTHNHSFT,https://twitter.com/LancsHospitals,Unavailable,https://lancsteachinghospitals.nhs.uk/contact-us,False
2292,Masjid,Bolton,Washington St,Unavailable,-2.4487713,53.5722897,Unavailable,Unavailable,not available,not available,False,not available,not available,Unavailable,Unavailable,not available,Unavailable,Unavailable,Unavailable,Unavailable,Unavailable,Unavailable,False
2329,Masjid,Manchester,200 Lees St,M18 8QN,-2.1638041,53.4668086,Unavailable,Unavailable,not available,not available,False,not available,not available,Unavailable,Unavailable,not available,Unavailable,Unavailable,Unavailable,Unavailable,Unavailable,Unavailable,False
2427,Masjid,London,7 Austin Friars,EC2N 2HA,-0.0856012999999999,51.5155314,Unavailable,Unavailable,not available,not available,False,not available,not available,Unavailable,Unavailable,not available,Unavailable,Unavailable,Unavailable,Unavailable,Unavailable,Unavailable,False
