id,name,area,address,postcode,lon,lat,phone,capacity,women,usage,multi,theme,management,website,email,phone_enhanced,facebook,instagram,youtube,twitter,linkedin,contact_page,MuslimsInBritainData
2041,Salford Islamic Community Centre,Salford,178 Langworthy Rd,M6 5PP,-2.294545,53.4868081,+44 7547 407461,Unavailable,not available,not available,False,not available,not available,https://www.salfordislamiccommunitycentre.com/,feddegooga@gmail.com,not available,Unavailable,Unavailable,Unavailable,Unavailable,Unavailable,https://www.salfordislamiccommunitycentre.com/contact-8,False
2042,Musalla Salaam (Clayton Musalla),Bradford,"Unit 8, 189 Pasture Ln",BD7 2SQ,-1.8035596,53.7832332,Unavailable,Unavailable,not available,not available,False,not available,not available,Unavailable,Unavailable,not available,Unavailable,Unavailable,Unavailable,Unavailable,Unavailable,Unavailable,False
2043,Muslim Mosque,Coventry,3 Blackwell Rd,CV6 5JS,-1.4984121,52.430178,Unavailable,Unavailable,not available,not available,False,not available,not available,Unavailable,Unavailable,not available,Unavailable,Unavailable,Unavailable,Unavailable,Unavailable,Unavailable,False
2044,Ardwick Mosque,Manchester,32-34 Wilson St,M13 9EX,-2.2225183,53.4667007,Unavailable,Unavailable,not available,not available,False,not available,not available,Unavailable,Unavailable,not available,Unavailable,Unavailable,Unavailable,Unavailable,Unavailable,Unavailable,False
2045,Belfast Masjid & Iqraa School,Belfast,18 Ashley Park,BT17 9EH,-6.0074129,54.550681,07886 102927,Unavailable,not available,not available,False,not available,not available,https://www.belfastiqraaschool.com/,info@belfastiqraaschool.com,not available,https://www.facebook.com/IqraaMasjidandSchool/,Unavailable,https://www.youtube.com/channel/UCRJZodmoO1hYojgzSb3xIzQ,Unavailable,Unavailable,https://www.belfastiqraaschool.com/contact/,False
2046,Muslim Prayer Room,London,116B Bow Rd,E3 3AA,-0.019133,51.528062,Unavailable,Unavailable,not available,not available,False,not available,not available,Unavailable,Unavailable,not available,Unavailable,Unavailable,Unavailable,Unavailable,Unavailable,Unavailable,False
2047,Seahaven Islamic Community Centre,Seaford,One Little Pl Ln,BN25 1LB,0.1014331,50.7724313,+44 7761 708746,Unavailable,not available,not available,False,not available,not available,https://seahavenislamiccommunity.org.uk/,info@seahavenislamiccommunity.org.uk,not available,https://www.facebook.com/seahavenislamiccommunity/,Unavailable,Unavailable,Unavailable,Unavailable,Unavailable,False
2048,Springbank Mosque,Hull,83 Spring Bank,HU3 1AG,-0.3514715,53.7492405,+44 7727 005727,Unavailable,not available,not available,False,not available,not available,Unavailable,springbank.mosque@gmail.com,not available,Unavailable,Unavailable,Unavailable,Unavailable,Unavailable,Unavailable,False
2049,Newcastle Masjid Jamia,Newcastle upon Tyne,26 Whickham View,Unavailable,-1.6826402,54.9749241,Unavailable,Unavailable,not available,not available,False,not available,not available,Unavailable,Unavailable,not available,Unavailable,Unavailable,Unavailable,Unavailable,Unavailable,Unavailable,False
2050,Jummah Salah (UKIM) in Bushmead Community Hub,Luton,Hancock Dr,LU2 7SF,-0.4122057999999999,51.9087313,+44 7974 734147,Unavailable,not available,J,False,not available,not available,Unavailable,Unavailable,not available,Unavailable,Unavailable,Unavailable,Unavailable,Unavailable,Unavailable,False
2051,Jummah Salah in Spiritual Care Centre,Chester,Parsons Ln,Unavailable,-2.8976064,53.209059,+44 1244 364543,Unavailable,not available,J,False,not available,not available,https://www.coch.nhs.uk/media/133209/chaplaincy-times-of-worship.pdf,Unavailable,not available,Unavailable,Unavailable,Unavailable,Unavailable,Unavailable,Unavailable,False
2052,Northfields Youth Centre (ISLAH TRUST),Leicester,Brighton Rd,LE5 0HA,-1.1000652,52.64677,07979 153661,Unavailable,not available,not available,False,not available,not available,https://www.facebook.com/ISLAH-TRUST-667921773311320/,Unavailable,not available,Unavailable,Unavailable,Unavailable,Unavailable,Unavailable,Unavailable,False
2054,Shahparan Chadderton Central Mosque,Oldham,209-211 Garforth St,OL9 6RP,-2.133247,53.5501392,Unavailable,Unavailable,not available,not available,False,not available,not available,https://www.chaddertonshahporan.co.uk/about-us,Unavailable,not available,Unavailable,Unavailable,Unavailable,Unavailable,Unavailable,Unavailable,False
2056,Al Muwatta Institute,Bradford,Tickhill St,Unavailable,-1.7350081,53.7918826,Unavailable,Unavailable,not available,not available,False,not available,not available,Unavailable,Unavailable,not available,Unavailable,Unavailable,Unavailable,Unavailable,Unavailable,Unavailable,False
2058,Wythenshawe Masjid,Manchester,7 Moor End,M22 4JQ,-2.2614006,53.4060129,+44 161 850 7898,Unavailable,not available,not available,False,not available,not available,https://wythenshawemasjid.org/,office@wythenshawemasjid.org,not available,https://www.facebook.com/wythenshawemasjid,https://www.instagram.com/wythenshawemasjid/,Unavailable,https://twitter.com/WythMuslimAssoc,Unavailable,https://wythenshawemasjid.org/contact-us/,False
2059,"Jummah Salah in Sanctuary (Level 1, Gate 30, Brunel building)",Bristol,Brunel Building,Unavailable,-2.5910559,51.4946801,+44 117 414 3700,Unavailable,not available,J,False,not available,not available,https://www.nbt.nhs.uk/patients-carers/coming-hospital/spiritual-pastoral-care,the.chaplaincy@nbt.nhs.uk,not available,http://www.facebook.com/NorthBristolNHSTrust,https://www.instagram.com/north_bristol_nhs,http://www.youtube.com/user/NorthBristolNHSTrust,http://www.twitter.com/NorthBristolNHS,https://www.linkedin.com/company/north-bristol-nhs-trust,https://nbt.nhs.uk/about-us/contact-us,False
2060,Friday Prayer (Jummah Salah),Leeds,Civic G,LS1 3BR,-1.5496292,53.8016848,Unavailable,Unavailable,not available,J,False,not available,not available,Unavailable,Unavailable,not available,Unavailable,Unavailable,Unavailable,Unavailable,Unavailable,Unavailable,False
2061,Masjid e Taqwa,Blackburn,216 Pleckgate Rd,BB1 8QW,-2.4860932,53.769543,Unavailable,Unavailable,not available,not available,False,not available,not available,https://masjidetaqwa.mixlr.com/,Unavailable,not available,Unavailable,Unavailable,Unavailable,Unavailable,Unavailable,Unavailable,False
2062,Friday Prayer (Jummah Salah),North Shields,191 Rake Ln,NE29 8EQ,-1.4679478,55.0247149,Unavailable,Unavailable,not available,J,False,not available,not available,Unavailable,Unavailable,not available,Unavailable,Unavailable,Unavailable,Unavailable,Unavailable,Unavailable,False
2063,Stoke on Trent Diyanet Camii,Stoke-on-Trent,44 Jasper St,ST1 3DA,-2.1751364,53.0211792,Unavailable,Unavailable,not available,not available,False,not available,not available,https://www.instagram.com/stokeontrentdiyanetcami?igsh=MWxwaDF2YnZpZm1sMA==,Unavailable,not available,Unavailable,Unavailable,Unavailable,Unavailable,Unavailable,Unavailable,False
2064,Basford Culture Centre,Nottingham,Silverdale Rd,NG7 7EZ,-1.1722112,52.9794242,+44 7970 970205,Unavailable,not available,not available,False,not available,not available,https://www.basfordcc.org/,basfordculturecentre@hotmail.com,not available,https://www.facebook.com/104643672015225,https://www.instagram.com/basfordculture,Unavailable,Unavailable,Unavailable,https://basfordcc.org/contact-us,False
2065,Madrasa Miftah ul Uloom,Blackburn,4 Shear Bank Rd,BB1 8AP,-2.490079,53.7535997,+44 1254 680423,Unavailable,not available,not available,False,not available,not available,Unavailable,Unavailable,not available,Unavailable,Unavailable,Unavailable,Unavailable,Unavailable,Unavailable,False
2066,Masjid Al-Madani,Wednesbury,Unavailable,Unavailable,-2.0150948,52.5540419,Unavailable,Unavailable,not available,not available,False,not available,not available,Unavailable,Unavailable,not available,Unavailable,Unavailable,Unavailable,Unavailable,Unavailable,Unavailable,False
2068,"Al Ehsaan Academy, Community and Educational Centre",Leicester,92-96 Evington Rd,LE2 1HH,-1.1123141,52.6264998,+44 7883 444892,Unavailable,not available,not available,False,not available,not available,https://alehsaanacademy.org/,info@alehsaanacademy.org,not available,Unavailable,Unavailable,Unavailable,Unavailable,Unavailable,https://alehsaanacademy.org/contact-us/,False
2069,Westminster Bangladeshi Association,London,"Pimlico Resource Centre, Aylesford St",SW1V 3RL,-0.133994,51.4887775,+44 7538 677928,Unavailable,not available,not available,False,not available,not available,https://wbauk.org/,wbasw1@aol.com,not available,https://www.facebook.com/www.wbasw1.org.uk/,Unavailable,Unavailable,Unavailable,Unavailable,https://wbauk.org/contact-us/,False
2071,Masjid E Hanif,London,20 Kynoch Rd,N18 3BD,-0.044074,51.6162334,07878 750281,Unavailable,not available,not available,False,not available,not available,Unavailable,Unavailable,not available,Unavailable,Unavailable,Unavailable,Unavailable,Unavailable,Unavailable,False
2072,Faizan-e-Jamal e-Mustafa Darwen,Darwen,45 Railway Rd,BB3 2RJ,-2.4650857,53.6972988,+44 7702 756008,Unavailable,not available,not available,False,not available,not available,Unavailable,Unavailable,not available,Unavailable,Unavailable,Unavailable,Unavailable,Unavailable,Unavailable,False
2073,Muslim Prayer Room O18,London,Dreadnought Building,SE10 9NN,-0.0076098,51.4820355,Unavailable,Unavailable,not available,not available,False,not available,not available,Unavailable,Unavailable,not available,Unavailable,Unavailable,Unavailable,Unavailable,Unavailable,Unavailable,False
2074,B.C.A. Masjid Hartlepool,Hartlepool,77b Murray St,TS26 8RG,-1.2194323,54.6892054,+44 7919 524204,Unavailable,not available,not available,False,not available,not available,http://www.facebook.com/bcahartlepool,Unavailable,not available,https://www.facebook.com/login/,Unavailable,Unavailable,Unavailable,Unavailable,https://www.facebook.com/help/637205020878504,False
2075,N.A.I.K. Trust - Noah's Ark Institute Of Knowledge,Nelson,149 Railway St,BB9 9AJ,-2.2110598,53.8325876,+44 7824 644467,Unavailable,not available,not available,False,not available,not available,Unavailable,Unavailable,not available,Unavailable,Unavailable,Unavailable,Unavailable,Unavailable,Unavailable,False
2077,Masjid Al-Quba,Wolverhampton,Wednesfield Rd,WV10 0EN,-2.1100888,52.5919243,Unavailable,Unavailable,not available,not available,False,not available,not available,https://al-quba.co.uk/,Unavailable,not available,Unavailable,Unavailable,Unavailable,Unavailable,Unavailable,Unavailable,False
2078,Masjid Abi Hurairah,Stoke-on-Trent,North Rd,ST6 2BP,-2.1874424,53.0414159,+44 1782 256124,Unavailable,not available,not available,False,not available,not available,http://www.masjidabihurairah.com/,Unavailable,not available,Unavailable,Unavailable,Unavailable,https://twitter.com/masjidhurairah,Unavailable,https://masjidabihurairah.com/contact/,False
2079,Al-Shafeey Centre,Sheffield,3 Balfour Rd,S9 4RX,-1.4193122,53.3882245,Unavailable,Unavailable,not available,not available,False,not available,not available,Unavailable,Unavailable,not available,Unavailable,Unavailable,Unavailable,Unavailable,Unavailable,Unavailable,False
2080,The Eden Centre - Lindley,Huddersfield,31 Acre St,HD3 3DZ,-1.8179537,53.6542623,+44 7593 035912,Unavailable,not available,not available,False,not available,not available,http://www.theedenfoundation.org.uk/,enquiries@theedenfoundation.org.uk,not available,Unavailable,Unavailable,Unavailable,Unavailable,Unavailable,Unavailable,False
2081,Lowestoft Muslim Centre,Lowestoft,193 London Rd S,NR33 0DR,1.7444783,52.4675709,+44 7729 828083,Unavailable,not available,not available,False,not available,not available,Unavailable,Unavailable,not available,Unavailable,Unavailable,Unavailable,Unavailable,Unavailable,Unavailable,False
2084,Friday Prayer (Jummah Salah),Grantham,101 Manthorpe Rd,NG31 8DG,-0.6426151,52.9213919,Unavailable,Unavailable,not available,J,False,not available,not available,Unavailable,Unavailable,not available,Unavailable,Unavailable,Unavailable,Unavailable,Unavailable,Unavailable,False
2085,Friday Prayer (Jummah Salah),Halifax,"Calderdale Hospital, Dryclough Ln",HX3 0NH,-1.8576309,53.7051351,Unavailable,Unavailable,not available,J,False,not available,not available,Unavailable,Unavailable,not available,Unavailable,Unavailable,Unavailable,Unavailable,Unavailable,Unavailable,False
2087,Al Tawbah Mosque,Stockport,Unavailable,Unavailable,-2.168185,53.4020173,Unavailable,Unavailable,not available,not available,False,not available,not available,Unavailable,Unavailable,not available,Unavailable,Unavailable,Unavailable,Unavailable,Unavailable,Unavailable,False
2088,Friday Prayer (Jummah Salah),Lincoln,Greetwell Rd,LN2 5QY,-0.5191627,53.2337389,Unavailable,Unavailable,not available,J,False,not available,not available,Unavailable,Unavailable,not available,Unavailable,Unavailable,Unavailable,Unavailable,Unavailable,Unavailable,False
2089,Mosque,London,"Islamic and cultural centre, ED",SE15,-0.0676325,51.4737702,Unavailable,Unavailable,not available,not available,False,not available,not available,Unavailable,Unavailable,not available,Unavailable,Unavailable,Unavailable,Unavailable,Unavailable,Unavailable,False
2090,Hamza centre (community centre),Liverpool,106 Lawrence Rd,L15 0EQ,-2.9324044,53.3963441,Unavailable,Unavailable,not available,not available,False,not available,not available,Unavailable,Unavailable,not available,Unavailable,Unavailable,Unavailable,Unavailable,Unavailable,Unavailable,False
2092,Jummah Salah run by Northolt Islamic Centre,Northolt,"ISLIP COMMUNITY CENTRE, Arnold Rd",UB5 5TB,-0.3783807999999999,51.5487276,+44 7868 000567,Unavailable,not available,J,False,not available,not available,https://www.niclondon.org/home,donations@niclondon.org,not available,https://www.google.com/url?q=https%3A%2F%2Fwww.facebook.com%2Fnortholtislamiccentre&sa=D&sntz=1&usg=AOvVaw20MVT0bf9vJZrYPg_pqMiI,https://www.google.com/url?q=https%3A%2F%2Fwww.instagram.com%2Fnortholtislamic&sa=D&sntz=1&usg=AOvVaw2x9I6QWb6bv2KS8To-9-K6,http://www.youtube.com/@northoltislamiccentre7766,Unavailable,Unavailable,https://niclondon.org/contact-us,False
2093,Umm ul Qura Islamic Centre Bradford,Bradford,"93 Greenhill Ln, Leeds Rd",BD3 8DZ,-1.7200835,53.7932591,+44 7868 178141,Unavailable,not available,not available,False,not available,not available,http://ummulqura.org.uk/,info@ummulqura.org.uk,not available,Unavailable,Unavailable,Unavailable,Unavailable,Unavailable,https://ummulqura.org.uk/contact-us/,False
2095,Enfield Town Islamic Centre & Mosque,Enfield,5 Silver St,EN1 3EF,-0.0804189,51.6525707,+44 20 8191 2554,Unavailable,not available,not available,False,not available,not available,http://etic.org.uk/,info@etic.org.uk,not available,http://facebook.com/EnfieldETIC,https://www.instagram.com/eticlondon/,https://www.youtube.com/@EnfieldETIC,https://twitter.com/@eticlondon,Unavailable,https://etic.org.uk/contact-us/,False
2096,Faizan e Madina Masjid,Bradford,Maudsley St,BD3 9LE,-1.7318491,53.7940867,+44 1274 442663,Unavailable,not available,not available,False,not available,not available,http://dawateislamiyorkshire.co.uk/,yorkshire@dawateislamiuk.net,not available,https://www.facebook.com/DIYorkshireReg/,https://www.instagram.com/diyorkshirereg/,https://www.youtube.com/@DIYorkshireReg,https://twitter.com/DIYorkshireReg,Unavailable,https://dawateislamiyorkshire.co.uk/contact-us/,False
2097,Ar-Rahmah Academy,Chorley,Park Rd,PR7 1QN,-2.6316805,53.6577312,+44 1257 543786,Unavailable,not available,not available,False,not available,not available,http://ar-rahmah.org.uk/,info@ar-rahmah.org.uk,not available,Unavailable,Unavailable,Unavailable,Unavailable,Unavailable,http://ar-rahmah.org.uk/contact/,False
2098,Darul Falah Centre,Stoke-on-Trent,Town Rd,ST1 1QE,-2.1748843,53.0280172,+44 1782 301015,Unavailable,not available,not available,False,not available,not available,https://darulfalah.org/,info@darulfalah.org,not available,Unavailable,Unavailable,Unavailable,Unavailable,Unavailable,https://darulfalah.org/contact,False
2099,Baytus Salaam,Hemel Hempstead,Stevenage Rise,HP2 6BH,-0.4564856,51.7725049,+44 1442 967438,Unavailable,not available,not available,False,not available,not available,http://www.dbwa.org.uk/,Unavailable,not available,https://www.facebook.com/HemelDBWA/,Unavailable,https://www.youtube.com/channel/UCKinzzrpHPzlOWmtEmjHlXg,Unavailable,Unavailable,http://dbwa.org.uk/contact/,False
2101,‏Dungannon Mosque,Dungannon,"Muslim Community hall, 12 Ballygawley Rd",BT70 1EL,-6.777243599999999,54.5034326,+44 7817 543547,Unavailable,not available,not available,False,not available,not available,Unavailable,Unavailable,not available,Unavailable,Unavailable,Unavailable,Unavailable,Unavailable,Unavailable,False
2102,Friday Prayer,Luton,66 Eaton Green Rd,LU2 9JE,-0.3769671,51.8859845,Unavailable,Unavailable,not available,not available,False,not available,not available,Unavailable,Unavailable,not available,Unavailable,Unavailable,Unavailable,Unavailable,Unavailable,Unavailable,False
2103,Nawracy Mosque Ipswich,Ipswich,5 Woodbridge Rd,IP4 2EA,1.1592943,52.0583624,07383 834538,Unavailable,not available,not available,False,not available,not available,https://nawracymosque.org/,info@nawracymosque.org,not available,https://facebook.com/nawracymosque/,https://instagram.com/nawracymosque/,Unavailable,Unavailable,Unavailable,https://nawracymosque.org/contact-us/,False
2104,Quiet Room ( Prayer Room ),Leeds,9a Albion St,LS1 5AY,-1.5453515,53.7971117,Unavailable,Unavailable,not available,not available,False,not available,not available,Unavailable,Unavailable,not available,Unavailable,Unavailable,Unavailable,Unavailable,Unavailable,Unavailable,False
2105,Littlehampton mosque,Littlehampton,St Martin's Ln,Unavailable,-0.5426352,50.8102648,Unavailable,Unavailable,not available,not available,False,not available,not available,Unavailable,Unavailable,not available,Unavailable,Unavailable,Unavailable,Unavailable,Unavailable,Unavailable,False
2106,Ummah Community Centre,Batley,56 Wellington St,WF17 5HU,-1.6333527,53.7123937,Unavailable,Unavailable,not available,not available,False,not available,not available,Unavailable,Unavailable,not available,Unavailable,Unavailable,Unavailable,Unavailable,Unavailable,Unavailable,False
2107,Jummah Salah in Multi-Faith Prayer Room (in Ladysmith building),Ashton-under-Lyne,Unavailable,Unavailable,-2.0717455,53.4918517,+44 161 922 5333,Unavailable,not available,J,False,not available,not available,https://tamesideandglossopicft.nhs.uk/patients-and-visitors/advice-and-support/chaplaincy,chaplaincy@tgh.nhs.uk,not available,Unavailable,Unavailable,Unavailable,Unavailable,Unavailable,https://www.tamesideandglossopicft.nhs.uk/about-us/contact-us,False
2108,Norwich Muslim Centre,Norwich,391 Dereham Rd,NR5 8QJ,1.2543736,52.6373932,Unavailable,Unavailable,not available,not available,False,not available,not available,https://norwichmuslimcentre.org/,info@norwichmuslimcentre.org,not available,Unavailable,Unavailable,Unavailable,Unavailable,Unavailable,https://norwichmuslimcentre.org/contact/,False
2109,Bow West Organisation,London,73 Strahan Rd,E3 5DA,-0.0376293,51.5289861,Unavailable,Unavailable,not available,not available,False,not available,not available,Unavailable,Unavailable,not available,Unavailable,Unavailable,Unavailable,Unavailable,Unavailable,Unavailable,False
2110,Nottingham Council Of Mosques,Nottingham,"Office 6, Jarodale House, 7 Gregory Blvd",NG7 6LB,-1.1577213,52.9682231,Unavailable,Unavailable,not available,not available,False,not available,not available,http://nottinghammosques.org.uk/,info@nottinghammosques.org.uk,not available,https://www.facebook.com/NottmMosques/?ti=as,Unavailable,Unavailable,https://twitter.com/NottmMosques?t=p9ll5QtnGiDkU--3Sq49XQ&s=09,Unavailable,https://nottinghammosques.org.uk/contact/,False
2111,مسجد عمر - Masjid Umar - Islamic Centre Scotstoun,Glasgow,27-29 Burnham Rd,G14 0XA,-4.363709699999999,55.8821994,+44 7412 622820,Unavailable,not available,not available,False,not available,not available,https://umarmasjid.co.uk/,info@umarmasjid.co.uk,not available,https://www.facebook.com/pages/category/Mosque/Islamic-Centre-Scotstoun-106181184083589/,Unavailable,https://www.youtube.com/watch?v=hZXWDOZoDhk&ab_channel=IslamicCentreScotstoun,Unavailable,Unavailable,https://umarmasjid.co.uk/contact/,False
2113,Jumma Prayers Only,Farnham,Hale Village Hall,GU9 0HN,-0.797697,51.2332872,Unavailable,Unavailable,not available,not available,False,not available,not available,Unavailable,Unavailable,not available,Unavailable,Unavailable,Unavailable,Unavailable,Unavailable,Unavailable,False
2114,majlis e ulama e shia europe,Crowthorne,"Unit 20, Wellington Business Park, Duke's Ride",RG45 6LS,-0.8174404,51.3661308,07861 897160,Unavailable,not available,not available,False,not available,not available,http://www.majlis.org.uk/,Unavailable,not available,https://www.facebook.com/MajlisUlamaShia/,http://instagram.com/MajlisUlamaShia/,https://youtube.com/MajlisUlamaShia/,https://twitter.com/MajlisUlamaShia/,https://www.linkedin.com/shareArticle?mini=true&url=https://majlis.org.uk/contact-us/&title=Contact+Us,https://majlis.org.uk/contact-us/,False
2115,Islamic Prayer Room,London,204 Earls Ct Rd,SW5 9QF,-0.1938587,51.4925626,Unavailable,Unavailable,not available,not available,False,not available,not available,Unavailable,Unavailable,not available,Unavailable,Unavailable,Unavailable,Unavailable,Unavailable,Unavailable,False
2116,Faizan E Madina Jamia Masjid,Dewsbury,13 Pilgrim Ave,Unavailable,-1.6534752,53.6876508,07936 514097,Unavailable,not available,not available,False,not available,not available,Unavailable,Unavailable,not available,Unavailable,Unavailable,Unavailable,Unavailable,Unavailable,Unavailable,False
2118,Newham Bengali Community Trust,London,"unit 3, 2 Barking Rd",E6 3BP,0.0382072,51.5301107,+44 20 8552 9777,Unavailable,not available,not available,False,not available,not available,Unavailable,Unavailable,not available,Unavailable,Unavailable,Unavailable,Unavailable,Unavailable,Unavailable,False
2119,An-Nasar Mosque,Leicester,"6, 6 Mostyn St",LE3 6DT,-1.1605966,52.6334129,+44 7936 734294,Unavailable,not available,not available,False,not available,not available,https://thehelpfoundation.org.uk/musallah-masjid,thehelpfoundationleics@gmail.com,not available,http://facebook.com/111341031102097,http://instagram.com/thehelpfoundation,Unavailable,Unavailable,Unavailable,Unavailable,False
2120,Hosseinieh Foundation Darul Imaan,Bristol,4 Apsley St,BS5 6SP,-2.5591425,51.472847,+44 117 955 1550,Unavailable,not available,not available,False,not available,not available,https://www.facebook.com/hosseiniehfoundationbristol,Unavailable,not available,https://www.facebook.com/login/,Unavailable,Unavailable,Unavailable,Unavailable,https://www.facebook.com/help/637205020878504,False
2121,Friday Prayer,Hereford,1 Stonebow Rd,HR1 2BN,-2.706265,52.057334,Unavailable,Unavailable,not available,not available,False,not available,not available,Unavailable,Unavailable,not available,Unavailable,Unavailable,Unavailable,Unavailable,Unavailable,Unavailable,False
2124,Masjid مسجد Bracknell Islamic Cultural Society,Bracknell,UNIT C Waterside Pk,RG12 1RB,-0.774538,51.4152091,+44 1344 231044,Unavailable,not available,not available,False,not available,not available,http://www.bracknell-ics.org.uk/,info@bracknell-ics.org.uk,not available,https://www.facebook.com/ContactBICS/,Unavailable,https://www.youtube.com/channel/UCRYXsA_dzolj4db9uuHOI2g/videos,https://twitter.com/ContactBics,Unavailable,https://www.bracknell-ics.org.uk/contact/,False
2125,Ali Masjid,Nottingham,Beechdale Rd,NG8 3LH,-1.1917758,52.9612445,+44 115 969 0800,Unavailable,not available,not available,False,not available,not available,https://www.facebook.com/AspleyMasjid/,Unavailable,not available,//www.facebook.com/,Unavailable,Unavailable,Unavailable,Unavailable,Unavailable,False
2126,Faizan-e-Farooq-e-Azam,Romford,148 Somerville Rd,RM6 5AT,0.1276128,51.5803052,020 3092 2035,Unavailable,not available,not available,False,not available,not available,http://www.dawateislami.net/,support@dawateislami.net,not available,https://www.facebook.com/dawateislami.net,https://www.instagram.com/dawateislamiofficial,https://www.youtube.com/embed/kGMYCEd4UDE?rel=0,https://twitter.com/madanichannel,Unavailable,http://dawateislami.net/#pills-contact,False
2127,Ferham masjid,Rotherham,96 Belmont St,S61 1BG,-1.3769532,53.4279822,+44 7894 413789,Unavailable,not available,not available,False,not available,not available,https://www.facebook.com/profile.php?id=100066683461955,Unavailable,not available,//www.facebook.com/,Unavailable,Unavailable,Unavailable,Unavailable,Unavailable,False
2129,Friday Prayer (Jummah Salah),Birmingham,"Royal Orthopaedic Hospital, The Woodlands, Bristol Rd S",B31 2AP,-1.960956,52.4208484,Unavailable,Unavailable,not available,J,False,not available,not available,Unavailable,Unavailable,not available,Unavailable,Unavailable,Unavailable,Unavailable,Unavailable,Unavailable,False
2130,Prayer room (Contemplation room) at Bangladesh High commission,London,28 Queen's Gate,SW7 5JA,-0.1799377,51.4985801,Unavailable,Unavailable,not available,not available,False,not available,not available,Unavailable,Unavailable,not available,Unavailable,Unavailable,Unavailable,Unavailable,Unavailable,Unavailable,False
2131,Anatolian Masjid/Mosque,Portsmouth,Unavailable,Unavailable,-1.077024,50.8071086,Unavailable,Unavailable,not available,not available,False,not available,not available,Unavailable,Unavailable,not available,Unavailable,Unavailable,Unavailable,Unavailable,Unavailable,Unavailable,False
2132,Assalam Mosque,Maidstone,170 Union St,ME14 1EE,0.5287221,51.2756358,+44 7427 649328,Unavailable,not available,not available,False,not available,not available,https://assalamcentre.co.uk/,info@assalamcentre.co.uk,not available,Unavailable,Unavailable,Unavailable,Unavailable,https://www.linkedin.com/shareArticle?mini=true&url=https://assalamcentre.co.uk/,https://assalamcentre.co.uk/contact-us/,False
2133,Mill Lane Muslim Association,Romford,Mill Ln,RM6 6RS,0.1392561,51.5755245,07540 749546,Unavailable,not available,not available,False,not available,not available,http://www.mill-lane-muslim-association.org.uk/,Unavailable,not available,http://www.facebook.com/Facebook,Unavailable,http://www.youtube.com/YouTube,http://twitter.com/Twitter,Unavailable,http://mill-lane-muslim-association.org.uk/1_4_contact.html,False
2134,Nile Centre Muslim Prayer Room,London,131 Broadley St,NW8 8BA,-0.1712335999999999,51.5213508,Unavailable,Unavailable,not available,not available,False,not available,not available,Unavailable,Unavailable,not available,Unavailable,Unavailable,Unavailable,Unavailable,Unavailable,Unavailable,False
2135,Jummah in Chorleywood,Rickmansworth,"Chorleywood War Memorial Hall, Common Rd",WD3 5LN,-0.5169716,51.6547618,Unavailable,Unavailable,not available,J,False,not available,not available,Unavailable,Unavailable,not available,Unavailable,Unavailable,Unavailable,Unavailable,Unavailable,Unavailable,False
2136,Faizan E Madina Masjid Nuneaton,Nuneaton,2A Henry St,CV11 5SQ,-1.4686718,52.5156767,+44 7535 419840,Unavailable,not available,not available,False,not available,not available,Unavailable,Unavailable,not available,Unavailable,Unavailable,Unavailable,Unavailable,Unavailable,Unavailable,False
2137,Inverclyde Muslim Centre,Greenock,9 Laird St,PA15 1LB,-4.7610283,55.9506164,+44 7944 675962,Unavailable,not available,not available,False,not available,not available,https://masjidbox.com/prayer-times/inverclyde-muslim-centre,Unavailable,not available,Unavailable,Unavailable,Unavailable,Unavailable,Unavailable,Unavailable,False
2139,SICM,Harrow,39 Gloucester Rd,HA1 4PR,-0.3598367999999999,51.5868144,Unavailable,Unavailable,not available,not available,False,not available,not available,https://sicm.org.uk/,info@sicm.org.uk,not available,https://www.facebook.com/sicm.mahfil.ali/,https://www.instagram.com/sicm_mahfil_ali/,http://www.youtube.com/sicmtv,https://twitter.com/sicm_mahfil_ali,Unavailable,https://sicm.org.uk/contact-us/,False
2140,Jemia Mosque,Rotherham,Chapel Walk,S60 1EX,-1.364348,53.4310538,+44 7799 325444,Unavailable,not available,not available,False,not available,not available,Unavailable,Unavailable,not available,Unavailable,Unavailable,Unavailable,Unavailable,Unavailable,Unavailable,False
2141,Siddiqa Nawaz Mosque & Community Centre,Bungay,Sun Rd,NR35 2RW,1.4597438,52.471625,+44 7792 184465,Unavailable,not available,not available,False,not available,not available,https://www.jamiaalmaarif.co.uk/broome-mosque/,info@jamiaalmaarif.co.uk,not available,https://www.facebook.com/jamiaalmaarif/,https://www.instagram.com/jamiaalmaarif/,https://www.youtube.com/channel/UCUkUpnYfrdliJ6EsJWqk3gw,https://twitter.com/JamiaAlmaarif?s=09,Unavailable,https://jamiaalmaarif.co.uk/contact-us,False
2142,Friday Prayer,Ormskirk,Unavailable,L39 4QU,-2.8725682,53.5644521,Unavailable,Unavailable,not available,not available,False,not available,not available,Unavailable,Unavailable,not available,Unavailable,Unavailable,Unavailable,Unavailable,Unavailable,Unavailable,False
2143,The Al Noor Leeds,Leeds,40 Cowper Mount,LS9 7BB,-1.5103293,53.8093113,Unavailable,Unavailable,not available,not available,False,not available,not available,Unavailable,Unavailable,not available,Unavailable,Unavailable,Unavailable,Unavailable,Unavailable,Unavailable,False
2144,Masjid Northwood Hills & Community Centre,Northwood,Joel St,HA6 1NL,-0.4104989,51.5975733,+44 7716 756677,Unavailable,not available,not available,False,not available,not available,http://ironaid.org/,info@ironaid.org,not available,Unavailable,https://www.instagram.com/ironaid.foundation/,https://www.youtube.com/channel/UC3xYPkKXAD6oyMnQMkASGYA,Unavailable,Unavailable,https://ironaid.org/contact-us/,False
2145,Darul Ummah Hornchurch - House of the Community,Hornchurch,10 Maybank Ave,RM12 5SA,0.2031683,51.5454066,Unavailable,Unavailable,not available,not available,False,not available,not available,https://duhornchurch.org.uk/,info@duhornchurch.org.uk,not available,Unavailable,Unavailable,https://www.youtube.com/@darulummahhornchurch/videos,Unavailable,Unavailable,https://duhornchurch.org.uk/contact/,False
2146,Jummah Salaah - Skelmersdale,Skelmersdale,"Greenhill Community Hub, Beech Cl",WN8 8DL,-2.7944034,53.5495208,+44 7834 719789,Unavailable,not available,J,False,not available,not available,https://www.masjidtooba.co.uk/skem/,zakir.lorgat@gmail.com,not available,Unavailable,Unavailable,Unavailable,Unavailable,Unavailable,https://masjidtooba.co.uk/contact/,False
2147,Masjid Quba & Community Hub,Dewsbury,The Common,WF12 0LJ,-1.6232907,53.6707425,Unavailable,Unavailable,not available,not available,False,not available,not available,Unavailable,Unavailable,not available,Unavailable,Unavailable,Unavailable,Unavailable,Unavailable,Unavailable,False
2148,Felicity House,Liverpool,"Greensville Trust, Northdale Rd",L15 4HT,-2.9226925,53.401036,+44 151 733 0333,Unavailable,not available,not available,False,not available,not available,http://www.greensvilletrust.org/,info@greensvilletrust.org,not available,Unavailable,Unavailable,https://www.youtube.com/watch?v=xe1Mtuok0Lg,Unavailable,Unavailable,http://greensvilletrust.org/contact.php,False
2149,Spotland Methodist Church,Rochdale,Rooley Moor Rd,OL12 7DQ,-2.1773397,53.6250613,Unavailable,Unavailable,not available,not available,False,not available,not available,https://spotlandic.org/,info@spotlandic.org,not available,Unavailable,Unavailable,Unavailable,Unavailable,Unavailable,https://spotlandic.org/#B480ABE1-D3C6-4657-94FA-B49F0B7DBC76,False
2150,Faizan e Jilan Masjid,Blackburn,Whalley Old Rd,BB1 5PQ,-2.4656009,53.7598171,Unavailable,Unavailable,not available,not available,False,not available,not available,Unavailable,Unavailable,not available,Unavailable,Unavailable,Unavailable,Unavailable,Unavailable,Unavailable,False
2151,Salahuddin Trust Mosque,Plymouth,10 Durnford St,PL1 3QJ,-4.1628429,50.3685353,Unavailable,Unavailable,not available,J,False,not available,not available,http://salahuddintrust.co.uk/,Unavailable,not available,Unavailable,Unavailable,Unavailable,Unavailable,Unavailable,Unavailable,False
2152,Orchard Street Mosque,Swansea,20 Orchard St,SA1 5AG,-3.9430671,51.6223059,Unavailable,Unavailable,not available,not available,False,not available,not available,Unavailable,Unavailable,not available,Unavailable,Unavailable,Unavailable,Unavailable,Unavailable,Unavailable,False
2153,Stroud Juma (Friday Prayer Hall),Stroud,Stratford Rd,GL5 4AF,-2.2249799,51.7498108,+44 7388 050236,Unavailable,not available,J,False,not available,not available,Unavailable,Unavailable,not available,Unavailable,Unavailable,Unavailable,Unavailable,Unavailable,Unavailable,False
2154,Faizan e Madinah Jamia Masjid,Bristol,577-579 Fishponds Rd,BS16 3AF,-2.5382441,51.4768659,+44 7711 030475,Unavailable,not available,not available,False,not available,not available,http://www.dawateislami.net/,support@dawateislami.net,not available,https://www.facebook.com/dawateislami.net,https://www.instagram.com/dawateislamiofficial,https://www.youtube.com/embed/kGMYCEd4UDE?rel=0,https://twitter.com/madanichannel,Unavailable,http://dawateislami.net/#pills-contact,False
2155,Taj dare madina trinity road,London,57-59 Trinity Rd,SW17 7SD,-0.1615746,51.4367759,Unavailable,Unavailable,not available,not available,False,not available,not available,Unavailable,Unavailable,not available,Unavailable,Unavailable,Unavailable,Unavailable,Unavailable,Unavailable,False
2156,Prayer Room (For Jummah and Shalat),Manchester,Cavendish St,M15 6BG,-2.2371559,53.470193,Unavailable,Unavailable,not available,J,False,not available,not available,Unavailable,Unavailable,not available,Unavailable,Unavailable,Unavailable,Unavailable,Unavailable,Unavailable,False
2157,South Leeds Al Noor,Leeds,115 Back Middleton View,Unavailable,-1.5570541999999998,53.7779337,Unavailable,Unavailable,not available,not available,False,not available,not available,Unavailable,Unavailable,not available,Unavailable,Unavailable,Unavailable,Unavailable,Unavailable,Unavailable,False
2158,Grand Mosque المسجد الكبير,Manchester,199 Mauldeth Rd,M19 1AB,-2.2070599,53.4322933,+44 7988 773544,Unavailable,not available,not available,False,not available,not available,https://grandmosque.net/,info@grandmosque.net,not available,Unavailable,Unavailable,Unavailable,Unavailable,Unavailable,Unavailable,False
2160,Markaz E Ahlebait,Bolton,Fletcher St,BL3 6NG,-2.4294062,53.5682802,+44 1204 527762,Unavailable,not available,not available,False,not available,not available,http://markazeahlebait.org/,info@markazeahlebait.org,not available,https://www.facebook.com/pages/Markaz-e-Ahlebait/879352785455292,Unavailable,https://www.youtube.com/channel/UC_O5rcgVKfFbwXiOnbHJaMg,https://twitter.com/markaz_e_Ahleba,Unavailable,http://markazeahlebait.org/contact,False
2161,BECA Masjid (Old Kent Road),London,168-170 Old Kent Rd,SE1 5TY,-0.0815275,51.4907884,+44 20 3649 6795,Unavailable,not available,not available,False,not available,not available,https://www.becamasjid.org/,Unavailable,not available,Unavailable,Unavailable,Unavailable,Unavailable,Unavailable,Unavailable,False
2162,Masjid Sulaymān Bin Dāwūd,Birmingham,196 York Rd,B28 8LE,-1.8362309,52.4381953,+44 7305 968580,Unavailable,not available,not available,False,not available,not available,https://masjidsulayman.co.uk/,Unavailable,not available,Unavailable,Unavailable,Unavailable,Unavailable,Unavailable,Unavailable,False
2163,Kowneyn education and cultural centre,Birmingham,2 Revesby Walk,B7 4LG,-1.8769667,52.4868908,+44 7535 123897,Unavailable,not available,not available,False,not available,not available,Unavailable,Unavailable,not available,Unavailable,Unavailable,Unavailable,Unavailable,Unavailable,Unavailable,False
2164,Friday Prayer (Jummah Salah),Barnsley,"Barnsley Hospital, Gawber Rd",S75,-1.500596,53.5579867,Unavailable,Unavailable,not available,J,False,not available,not available,Unavailable,Unavailable,not available,Unavailable,Unavailable,Unavailable,Unavailable,Unavailable,Unavailable,False
2165,Louisa Ryland House Masjid,Birmingham,104 Edmund St,B3 2ES,-1.9020229,52.4815572,Unavailable,Unavailable,not available,not available,False,not available,not available,Unavailable,Unavailable,not available,Unavailable,Unavailable,Unavailable,Unavailable,Unavailable,Unavailable,False
2166,Latifiah Fultali Complex,West Bromwich,"Latifiah Fultali Complex, Lodge Rd",B70 8NX,-1.9994362,52.5203704,+44 121 516 2264,Unavailable,not available,not available,False,not available,not available,http://latifiahfultalicomplex.org/,Unavailable,not available,https://www.facebook.com/latifiahfultalicomplex,Unavailable,Unavailable,Unavailable,Unavailable,https://latifiahfultalicomplex.org/contact/,False
2167,Friday Prayer (Jummah Salah),Dewsbury,Fitton House Dewsbury District H,WF13 4HS,-1.6504839,53.7020119,Unavailable,Unavailable,not available,J,False,not available,not available,Unavailable,Unavailable,not available,Unavailable,Unavailable,Unavailable,Unavailable,Unavailable,Unavailable,False
2169,South Essex Islamic Trust,Basildon,"South Essex Islamic Trust, High Rd",SS16 4ND,0.4871589999999999,51.5604076,+44 7985 048669,Unavailable,not available,not available,False,not available,not available,https://seit.org.uk/?utm_campaign=gmb,info@seit.org.uk,not available,Unavailable,Unavailable,Unavailable,Unavailable,Unavailable,https://seit.org.uk/#contact_us,False
2170,Friday Prayer (Jummah Salah),Wigan,"La, Wigan Ln",WN1 2NN,-2.6296883,53.5575872,Unavailable,Unavailable,not available,J,False,not available,not available,Unavailable,Unavailable,not available,Unavailable,Unavailable,Unavailable,Unavailable,Unavailable,Unavailable,False
2171,Jummah Salah in New Parks Community Centre,Leicester,St Oswalds Rd,LE3 6RJ,-1.1807584,52.643957,+44 7828 828459,Unavailable,not available,J,False,not available,not available,https://www.newparksacademy.org/,info@newparksacademy.org,not available,Unavailable,Unavailable,Unavailable,Unavailable,Unavailable,https://newparksacademy.org/#Contact-Us,False
2172,Burgess Hill Muslim Community Mosque,Burgess Hill,130 Lower Church Rd,RH15 9AB,-0.1380609,50.9572669,+44 7899 999999,Unavailable,not available,not available,False,not available,not available,Unavailable,Unavailable,not available,Unavailable,Unavailable,Unavailable,Unavailable,Unavailable,Unavailable,False
2173,Musalla Salaam,Bradford,"unit 18, 189 Pasture Ln",BD7 2SQ,-1.8035686,53.7832546,Unavailable,Unavailable,not available,not available,False,not available,not available,Unavailable,Unavailable,not available,Unavailable,Unavailable,Unavailable,Unavailable,Unavailable,Unavailable,False
2174,Al-Rahmah Faith Centre,Leeds,6 Sheepscar Way,LS7 3JB,-1.5355479,53.8104905,+44 7508 044680,Unavailable,not available,not available,False,not available,not available,https://alrahmah.org.uk/,alrahmahleeds@gmail.com,not available,https://www.facebook.com/alrahmahleeds/,https://www.instagram.com/alrahmahleeds/,https://www.youtube.com/@alrahmahmasjid,Unavailable,Unavailable,https://www.alrahmah.org.uk/contact-us/,False
2175,Friday Prayer (Jummah Salah),Carlisle,Newtown Rd,Unavailable,-2.9584506,54.8969551,Unavailable,Unavailable,not available,J,False,not available,not available,https://www.ncic.nhs.uk/locations/cumberland-infirmary/facilities,susie.tate@ncuh.nhs.uk,not available,https://www.facebook.com/NCICNHS,Unavailable,https://youtube.com,https://twitter.com/NCICNHS,https://www.linkedin.com/company/north-cumbria-intergrated-care-nhs-foundation-trust,https://www.ncic.nhs.uk/contact,False
2176,HMCT – Heatons Muslims Community Trust,Stockport,"Mersey House, Battersea Rd",SK4 3EA,-2.2015139,53.4083327,+44 7776 053081,Unavailable,not available,not available,False,not available,not available,http://www.hmct.org/,info@hmct.org,not available,Unavailable,Unavailable,Unavailable,Unavailable,Unavailable,https://hmct.org/contact-us/,False
2177,Newcastle City Mosque,Newcastle upon Tyne,"Union Chambers, 41 Grainger St",NE1 5JE,-1.6161636,54.9708043,+44 191 222 0069,Unavailable,not available,not available,False,not available,not available,http://newcastlecitymosque.co.uk/,Unavailable,not available,Unavailable,Unavailable,Unavailable,Unavailable,Unavailable,Unavailable,False
2178,Masjid Abdul raheem,Birmingham,54 Stechford Rd,B34 6BG,-1.8124195,52.4911845,Unavailable,Unavailable,not available,not available,False,not available,not available,Unavailable,Unavailable,not available,Unavailable,Unavailable,Unavailable,Unavailable,Unavailable,Unavailable,False
2179,WORCESTER CENTRAL MASJID,Worcester,86 Lowesmoor,WR1 2SB,-2.2153282,52.1953489,07901 652574,Unavailable,not available,not available,False,not available,not available,https://www.facebook.com/WorcesterMosque/?locale=en_GB,Unavailable,not available,Unavailable,Unavailable,Unavailable,Unavailable,Unavailable,Unavailable,False
2180,Masjid At-Taqwa,Wolverhampton,80 Hordern Rd,WV6 0HJ,-2.1513278,52.5984159,+44 7387 080902,Unavailable,not available,not available,False,not available,not available,Unavailable,Unavailable,not available,Unavailable,Unavailable,Unavailable,Unavailable,Unavailable,Unavailable,False
2181,Hazarat Shahjalal mosque,Milton Keynes,Unavailable,Unavailable,-0.7501591999999999,52.0021773,Unavailable,Unavailable,not available,not available,False,not available,not available,Unavailable,Unavailable,not available,Unavailable,Unavailable,Unavailable,Unavailable,Unavailable,Unavailable,False
2182,Lulli yard,Smethwick,4 Dibble Rd,B67 7PP,-1.9750315,52.4974638,Unavailable,Unavailable,not available,not available,False,not available,not available,Unavailable,Unavailable,not available,Unavailable,Unavailable,Unavailable,Unavailable,Unavailable,Unavailable,False
2183,The Fazilat Masjid (Mosque),Nottingham,46 Musters Rd,NG2 7PR,-1.1333235,52.9343222,Unavailable,Unavailable,not available,not available,False,not available,not available,Unavailable,Unavailable,not available,Unavailable,Unavailable,Unavailable,Unavailable,Unavailable,Unavailable,False
2184,Al-Huda,Birmingham,228 Heybarnes Rd,B10 9JF,-1.8309234,52.4698817,Unavailable,Unavailable,not available,not available,False,not available,not available,Unavailable,Unavailable,not available,Unavailable,Unavailable,Unavailable,Unavailable,Unavailable,Unavailable,False
2185,Clarkston Community Centre (Masjid Yusuf),Glasgow,164 Stamperland Gardens,G76 8LJ,-4.2726684,55.7949336,+44 1294 317171,Unavailable,not available,not available,False,not available,not available,https://clarkstoncommunitycentre.co.uk/,Unavailable,not available,Unavailable,Unavailable,Unavailable,Unavailable,Unavailable,https://clarkstoncommunitycentre.co.uk/contact/,False
2186,Waring park,Sidcup,Unavailable,Unavailable,0.1009392,51.4264863,Unavailable,Unavailable,not available,not available,False,not available,not available,Unavailable,Unavailable,not available,Unavailable,Unavailable,Unavailable,Unavailable,Unavailable,Unavailable,False
2187,Birmingham City Centre Islamic Hub,Birmingham,104 Edmund St,B3 2ES,-1.9026762,52.4812145,Unavailable,Unavailable,not available,not available,False,not available,not available,Unavailable,Unavailable,not available,Unavailable,Unavailable,Unavailable,Unavailable,Unavailable,Unavailable,False
2189,Dagenham Ummah Welfare Trust,Dagenham,5 Hewett Rd,RM8 2XT,0.1290101,51.5514128,+44 7476 572279,Unavailable,not available,not available,False,not available,not available,https://duwt.org/,duwt@hotmail.co.uk,not available,Unavailable,Unavailable,Unavailable,Unavailable,Unavailable,https://duwt.org/contact/,False
2190,Jumu'ah Salaah / Jumuaa Prayer,London,Spratt Hall Rd,E11 2RQ,0.0252555,51.5758654,Unavailable,Unavailable,not available,not available,False,not available,not available,Unavailable,Unavailable,not available,Unavailable,Unavailable,Unavailable,Unavailable,Unavailable,Unavailable,False
2192,Jummah Salah in Chapel (Level 1),Norwich,Colney Ln,NR4 7UY,1.2209817,52.6171466,01603 287470,Unavailable,not available,J,False,not available,not available,https://www.nnuh.nhs.uk/departments/chaplaincy/chapel-and-services/,communications@nnuh.nhs.uk,not available,https://www.facebook.com/NNUH.nhs,https://www.instagram.com/norfolkandnorwichhospital/,Unavailable,http://twitter.com/home?status=Currently reading https://www.nnuh.nhs.uk/departments/chaplaincy/chapel-and-services/,http://www.linkedin.com/shareArticle?mini=true&url=https://www.nnuh.nhs.uk/departments/chaplaincy/chapel-and-services/&title=Chaplaincy services&source=nnuh.nhs.uk,https://www.nnuh.nhs.uk/patients-visitors/contacting-and-finding-us/finding-the-nnuh/transport-to-the-nn-park-and-ride-costessey-service-10/,False
2193,The Muslim Welfare Association,Chesterfield,10A Marsden St,S40 1JY,-1.430538,53.2382285,+44 7772 236599,Unavailable,not available,not available,False,not available,not available,http://muslimwelfarechesterfield.com/,contact@muslimwelfarechesterfield.com,not available,https://www.facebook.com/pages/category/Community-Organization/The-Muslim-Welfare-Association-Chesterfield-106163637518797/,Unavailable,https://www.youtube.com/channel/UCZsrGVUkVD8jyACEiYvvSfQ,https://twitter.com/FarooqSaddique6,Unavailable,https://muslimwelfarechesterfield.com/contact-us/,False
2194,Dorchester Islamic Centre,Dorchester,"Community House, Bridport Rd",DT1 1YG,-2.4457136,50.7150895,+44 7713 279497,Unavailable,not available,not available,False,not available,not available,https://www.diccm.co.uk/,dorchesterislamiccentre@gmail.com,not available,Unavailable,Unavailable,Unavailable,Unavailable,Unavailable,https://www.diccm.co.uk/contact,False
2195,Baytul Ihsaan,Leicester,202 Sandhills Ave,LE5 1PL,-1.0671148,52.6601245,Unavailable,Unavailable,not available,not available,False,not available,not available,Unavailable,Unavailable,not available,Unavailable,Unavailable,Unavailable,Unavailable,Unavailable,Unavailable,False
2196,Friday Prayer (Jummah Salah),Bury,Rochdale Old Rd,BL9 7TD,-2.2556825,53.6005215,Unavailable,Unavailable,not available,J,False,not available,not available,Unavailable,Unavailable,not available,Unavailable,Unavailable,Unavailable,Unavailable,Unavailable,Unavailable,False
2197,Faizan e Ghousia,Newcastle upon Tyne,98 Stanton St,NE4 5LE,-1.6377663,54.975202,Unavailable,Unavailable,not available,not available,False,not available,not available,Unavailable,Unavailable,not available,Unavailable,Unavailable,Unavailable,Unavailable,Unavailable,Unavailable,False
2198,Attarbiya Masjid,Birmingham,2 Revesby Walk,B7 4LG,-1.8769077,52.4869561,+44 7535 123897,Unavailable,not available,not available,False,not available,not available,http://kowneyn.org/,info@masjidatarbiya.org,not available,Unavailable,Unavailable,https://www.youtube.com/embed/LTqRm53QjI0,Unavailable,Unavailable,http://kowneyn.org/index.php/contact/,False
2199,Masjid Uthman,Glasgow,109 Stravanan Rd,G45 9UT,-4.2384243,55.7990382,+44 7305 120137,Unavailable,not available,not available,False,not available,not available,http://www.islamicacademyofscotland.org.uk/,Unavailable,not available,Unavailable,Unavailable,Unavailable,Unavailable,Unavailable,http://islamicacademyofscotland.org.uk/contact.html,False
2200,Eternal Light Academy,Manchester,Chadwick Rd,M30 0WP,-2.3447194,53.4845531,Unavailable,Unavailable,not available,not available,False,not available,not available,Unavailable,Unavailable,not available,Unavailable,Unavailable,Unavailable,Unavailable,Unavailable,Unavailable,False
2201,Masjid Salahuddin,Leicester,Upper George St,LE1 3LQ,-1.1270123,52.6410721,Unavailable,Unavailable,not available,J,False,not available,not available,https://www.facebook.com/masjidsalahuddinleicester/,Unavailable,not available,//www.facebook.com/,Unavailable,Unavailable,Unavailable,Unavailable,Unavailable,False
2202,Oakwood Road Mosque,Birmingham,26 Oakwood Rd,B11 4HA,-1.8623993,52.4474726,Unavailable,Unavailable,not available,not available,False,not available,not available,Unavailable,Unavailable,not available,Unavailable,Unavailable,Unavailable,Unavailable,Unavailable,Unavailable,False
2203,Becontree Jummah Prayer,Dagenham,67 Neasham Rd,RM8 2LX,0.1169891,51.5450631,Unavailable,Unavailable,not available,J,False,not available,not available,Unavailable,Unavailable,not available,Unavailable,Unavailable,Unavailable,Unavailable,Unavailable,Unavailable,False
2204,AlMasjid Darnley Musallah,Glasgow,70 Woodhead Rd,G53 7NN,-4.3603572,55.8113625,+44 141 286 6935,Unavailable,not available,not available,False,not available,not available,Unavailable,Unavailable,not available,Unavailable,Unavailable,Unavailable,Unavailable,Unavailable,Unavailable,False
2205,Al Farooq Academy & Masjid,Redditch,140 Mount Pleasant,Unavailable,-1.9443006,52.2997997,Unavailable,Unavailable,not available,not available,False,not available,not available,Unavailable,Unavailable,not available,Unavailable,Unavailable,Unavailable,Unavailable,Unavailable,Unavailable,False
2206,Al Furqan Mosque,Luton,33-35 Mount Pleasant Rd,LU3 2ST,-0.4564622,51.9055812,+44 7951 240388,Unavailable,not available,not available,False,not available,not available,https://alfurqanllm.org/,info@alfurqanllm.org,not available,Unavailable,Unavailable,Unavailable,Unavailable,Unavailable,https://alfurqanllm.org/contact/,False
2207,Nelson St Mary's Church,Nelson,112 Manchester Rd,BB9 7HD,-2.2202504,53.8343749,+44 1282 615888,Unavailable,not available,not available,False,not available,not available,https://www.nelsonlittlemarsden.org/homes,Unavailable,not available,Unavailable,Unavailable,Unavailable,Unavailable,Unavailable,Unavailable,False
2208,"Jummah Salah in Chapel (main corridor, behind main entrance reception)",Slough,Unavailable,Unavailable,-0.5751902,51.5325436,+44 300 615 3660,Unavailable,not available,J,False,not available,not available,https://www.fhft.nhs.uk/your-visit/help-with-your-visit/chaplaincy/,fhft.communications@nhs.net,not available,https://www.facebook.com/FrimleyHealth/,https://www.instagram.com/frimleyhealth,Unavailable,Unavailable,https://www.linkedin.com/company/frimley-health-nhs-foundation-trust/,https://www.fhft.nhs.uk/patients-and-visitors/share-your-experience/contact-us,False
2209,Friday Prayers (Jummah) in Evington Leisure Centre,Leicester,131 Downing Dr,LE5 6LP,-1.0630012,52.6251515,Unavailable,Unavailable,not available,J,False,not available,not available,https://injamatt.co.uk/wbap/index.php/jumuah/,Unavailable,not available,Unavailable,Unavailable,Unavailable,Unavailable,Unavailable,Unavailable,False
2210,Bow Mosque,London,71 Smeed Rd,E3 2NE,-0.0243337,51.5392164,+44 20 8983 1661,Unavailable,not available,not available,False,not available,not available,https://www.bowmosque.co.uk/,Unavailable,not available,Unavailable,Unavailable,Unavailable,Unavailable,Unavailable,https://www.bowmosque.co.uk/east-london-mosque-prayer-time/,False
2211,New Parks Academy Musalla,Leicester,22 Dillon Rd,LE3 9PF,-1.1758927,52.6467293,+44 7369 261699,Unavailable,not available,not available,False,not available,not available,http://newparksacademy.org/,info@newparksacademy.org,not available,Unavailable,Unavailable,Unavailable,Unavailable,Unavailable,http://newparksacademy.org/#Contact-Us,False
2212,West Fife Islamic Education & Welfare Centre Ltd,Dunfermline,39 Manor Gardens,KY11 8RW,-3.4122,56.0659445,01383 229479,Unavailable,not available,not available,False,not available,not available,Unavailable,Unavailable,not available,Unavailable,Unavailable,Unavailable,Unavailable,Unavailable,Unavailable,False
2213,Faizan E Farooq E Azam,Dudley,77 Stourbridge Rd,DY1 2DH,-2.1031223,52.5030293,+44 7429 436326,Unavailable,not available,not available,False,not available,not available,https://dawateislamimidlands.net/,midlands@dawateislamiuk.net,not available,https://www.facebook.com/DawateislamiMidlandsUK,https://www.instagram.com/dawateislamimidlandsuk/,https://www.youtube.com/channel/UCEYdQQlx3ocLwsw878nJxhg,https://twitter.com/DIMidlandsUK,Unavailable,https://dawateislamimidlands.net/contact-us/,False
2214,Friday Prayer (Jummah Salah),Oxford,"Churchill Hospital, Old Rd",OX3 7LH,-1.2129136,51.7493682,Unavailable,Unavailable,not available,J,False,not available,not available,Unavailable,Unavailable,not available,Unavailable,Unavailable,Unavailable,Unavailable,Unavailable,Unavailable,False
2215,Jummah Salah (Run by Three Meem Foundation),Sale,Newbury Ave,M33 4QJ,-2.3571,53.4185109,+44 7944 914183,Unavailable,not available,J,False,not available,not available,http://www.3meem.org/,info@3meem.org,not available,https://www.facebook.com/3meem/,https://instagram.com/3meemfoundation,Unavailable,https://twitter.com/threemeem,Unavailable,Unavailable,False
2216,Faizan-e-Ramdan Mosque Telford,Telford,Constitution Hill,TF1 3AY,-2.513076,52.702152,+44 7974 770636,Unavailable,not available,not available,False,not available,not available,Unavailable,Unavailable,not available,Unavailable,Unavailable,Unavailable,Unavailable,Unavailable,Unavailable,False
2217,Makki masjid,Dudley,52 Himley Rd,DY1 2RG,-2.0975731,52.513379,Unavailable,Unavailable,not available,not available,False,not available,not available,Unavailable,Unavailable,not available,Unavailable,Unavailable,Unavailable,Unavailable,Unavailable,Unavailable,False
2218,Jack Manifold Shack,Oldham,Elm Rd,Unavailable,-2.1257272,53.5150249,Unavailable,Unavailable,not available,not available,False,not available,not available,Unavailable,Unavailable,not available,Unavailable,Unavailable,Unavailable,Unavailable,Unavailable,Unavailable,False
2219,Mosque,Hull,Carlton St,HU3 5JL,-0.3799257,53.7343712,Unavailable,Unavailable,not available,not available,False,not available,not available,Unavailable,Unavailable,not available,Unavailable,Unavailable,Unavailable,Unavailable,Unavailable,Unavailable,False
2220,Peacehaven Mosque,Peacehaven,8 Phyllis Ave,BN10 7HY,-0.0076618999999999,50.7923126,+44 7412 689148,Unavailable,not available,not available,False,not available,not available,https://www.peacehavenmosque.co.uk/,info@peacehavenmosque.co.uk,not available,https://facebook.com/Peace-Community-Centre-105097854767838/,Unavailable,Unavailable,Unavailable,Unavailable,https://www.peacehavenmosque.co.uk/contact-us,False
2221,Farooq E Azam Mosque & Islamic Centre,Stockton-on-Tees,Bowesfield Ln,TS18 3EB,-1.3183776,54.5598044,+44 7933 108728,Unavailable,not available,not available,False,not available,not available,https://www.facebook.com/famic.stocktonontees,Unavailable,not available,https://www.facebook.com/login/,Unavailable,Unavailable,Unavailable,Unavailable,https://www.facebook.com/help/637205020878504,False
2222,Satuq Bughra Khan Mosque & Uyghur Education Centre,London,611A Green Lanes,N13 4EP,-0.0993559,51.6264745,+44 20 8143 1267,Unavailable,not available,not available,False,not available,not available,https://satuqbughrakhan.co.uk/,info@izqilar.co.uk,not available,Unavailable,Unavailable,Unavailable,Unavailable,Unavailable,https://satuqbughrakhan.co.uk/contact-us/,False
2223,Friday Prayer (Jummah Salah),Newcastle upon Tyne,Royal Victoria Infirmary - Victoria Wing,NE1 4LP,-1.6189897,54.9801434,Unavailable,Unavailable,not available,J,False,not available,not available,Unavailable,Unavailable,not available,Unavailable,Unavailable,Unavailable,Unavailable,Unavailable,Unavailable,False
2224,Ilm Centre & Mosque,Blackburn,Tontine St,BB1 7ED,-2.4841297,53.7512579,+44 1254 265451,Unavailable,not available,not available,False,not available,not available,Unavailable,Unavailable,not available,Unavailable,Unavailable,Unavailable,Unavailable,Unavailable,Unavailable,False
2225,Bangladesh mosque,London,63 Penfold St,NW8 8PQ,-0.1727909,51.523503,Unavailable,Unavailable,not available,not available,False,not available,not available,Unavailable,Unavailable,not available,Unavailable,Unavailable,Unavailable,Unavailable,Unavailable,Unavailable,False
2226,Gambian mosque in Hockley,Birmingham,12 Mearse Cl,B18 7HU,-1.9240679,52.4911142,Unavailable,Unavailable,not available,not available,False,not available,not available,Unavailable,Unavailable,not available,Unavailable,Unavailable,Unavailable,Unavailable,Unavailable,Unavailable,False
2227,ASCHC Friday prayer (Jummah salah students only),Huddersfield,Bradley Bar Roundabout,Unavailable,-1.7729192,53.6776079,+44 1484 426466,Unavailable,not available,J,False,not available,not available,https://www.aschc.co.uk/,office@aschc.com,not available,https://www.facebook.com/allsaintscatholiccollege/?ref=py_c,Unavailable,https://www.youtube.com/watch?v=8GghOQ5mG1M,https://twitter.com/aschc_college?lang=en,Unavailable,https://www.aschc.co.uk/contact/,False
2228,Yorkshire Muslim Academy,Sheffield,"Crown Works, Bland St",S4 8DG,-1.438172,53.404281,0114 245 8835,Unavailable,not available,not available,False,not available,not available,https://www.ymasheffield.org/,ymasheffield@gmail.com,not available,https://www.facebook.com/masjidumaryma,Unavailable,Unavailable,https://twitter.com/masjidumaryma,https://www.linkedin.com/company/masjidumaryma,https://www.ymasheffield.org/contact,False
2229,Daventry Muslim Association (Daventry Masjid),Daventry,12 Cottesbrooke Park,NN11 8YL,-1.1750387,52.2733097,+44 7958 774551,Unavailable,not available,not available,False,not available,not available,http://www.daventrymasjid.org.uk/,ahtaram@hotmail.com,not available,https://www.facebook.com/pg/Daventry-Muslim-Association-252581721974297/,Unavailable,Unavailable,Unavailable,Unavailable,https://www.daventrymasjid.org.uk/contact/,False
2230,Yusuf Hull Masjid,Luton,Hill Rise,LU3,-0.4687015,51.9160557,Unavailable,Unavailable,not available,not available,False,not available,not available,Unavailable,Unavailable,not available,Unavailable,Unavailable,Unavailable,Unavailable,Unavailable,Unavailable,False
2232,Friday Prayer (Jummah Salah),Hull,"Hull Royal Infirmary, Fountain St",HU3 2JZ,-0.3580853,53.7443531,Unavailable,Unavailable,not available,J,False,not available,not available,Unavailable,Unavailable,not available,Unavailable,Unavailable,Unavailable,Unavailable,Unavailable,Unavailable,False
2233,Muslim Prayer Room,Kingston upon Thames,Kenry House,KT2 7LB,-0.2641192,51.429229,Unavailable,Unavailable,not available,not available,False,not available,not available,Unavailable,Unavailable,not available,Unavailable,Unavailable,Unavailable,Unavailable,Unavailable,Unavailable,False
2234,Enniskillen Mosque,Enniskillen,100 Irvinestown Rd,BT74 6GQ,-7.6336702,54.3598298,Unavailable,Unavailable,not available,not available,False,not available,not available,Unavailable,Unavailable,not available,Unavailable,Unavailable,Unavailable,Unavailable,Unavailable,Unavailable,False
2235,Multi Faith Prayer Room,Cannock,"1st Floor Guest Services, McArthur Designer Outlet, Eastern Way",Unavailable,-2.0159066,52.6882186,Unavailable,Unavailable,not available,not available,False,not available,not available,Unavailable,Unavailable,not available,Unavailable,Unavailable,Unavailable,Unavailable,Unavailable,Unavailable,False
2236,Jummah Salah in Egyptian Bureau,London,4 Chesterfield Gardens,W1J 5BG,-0.1491904,51.5067713,+44 20 7491 7720,Unavailable,not available,J,False,not available,not available,Unavailable,Unavailable,not available,Unavailable,Unavailable,Unavailable,Unavailable,Unavailable,Unavailable,False
2237,Dar Al-Hadi Foundation,Manchester,2A Higher Ardwick,M12 6BZ,-2.2216501,53.4708174,+44 7496 327002,Unavailable,not available,not available,False,not available,not available,https://m.facebook.com/profile.php?id=100067606076503,Unavailable,not available,//www.facebook.com/,Unavailable,Unavailable,Unavailable,Unavailable,Unavailable,False
2238,Mazhar e Islam Ghousia,Bradford,6/7 Low Green Terrace,BD7 3LU,-1.7820714,53.7788636,07405 361149,Unavailable,not available,not available,False,not available,not available,Unavailable,Unavailable,not available,Unavailable,Unavailable,Unavailable,Unavailable,Unavailable,Unavailable,False
2239,Faizan e Madinah & Education Centre Huddersfield,Huddersfield,75 New N Rd,HD1 5ND,-1.7930186,53.6512141,+44 1484 549763,Unavailable,not available,not available,False,not available,not available,https://dawateislamiyorkshire.co.uk/,yorkshire@dawateislamiuk.net,not available,https://www.facebook.com/DIYorkshireReg/,https://www.instagram.com/diyorkshirereg/,https://www.youtube.com/@DIYorkshireReg,https://twitter.com/DIYorkshireReg,Unavailable,https://dawateislamiyorkshire.co.uk/contact-us/,False
2240,Friday Prayer Naeem Foundation,Hatfield,26 Salisbury Square,AL9 5JD,-0.2146421,51.7625236,+44 7960 185682,Unavailable,not available,not available,False,not available,not available,https://naeemfoundation.co.uk/friday-prayer/,contact@naeemfoundation.co.uk,not available,https://www.facebook.com/NaeemFoundationUk?mibextid=ZbWKwL,https://www.instagram.com/naeemfoundation_uk?igsh=ODJnMXMwdXUxdjlk,Unavailable,Unavailable,Unavailable,https://naeemfoundation.co.uk/contact/,False
2241,Faizan-e-Islam Mosque (Lea Bridge Rd),London,757 Lea Bridge Rd,E17 9DZ,-0.0048882,51.5796648,+44 20 8281 7359,Unavailable,not available,not available,False,not available,not available,http://www.faizaneislam.com/,manchester@faizaneislam.com,not available,https://www.facebook.com/faizaneislam.org.uk/,Unavailable,https://www.youtube.com/user/FaizaneIslam,https://twitter.com/faizaneislam,Unavailable,https://faizaneislam.com/contact/,False
2242,Friday Prayer,Kirkcaldy,"Victoria Hospital, Hayfield House, Hayfield Rd",KY2 5AH,-3.1592689,56.1248818,Unavailable,Unavailable,not available,not available,False,not available,not available,Unavailable,Unavailable,not available,Unavailable,Unavailable,Unavailable,Unavailable,Unavailable,Unavailable,False
2243,Eden House Mosque and Youth Community Centre,Rochdale,"The Courthouse, Town Meadows",OL16 1AG,-2.1612448,53.6161959,+44 7976 614519,Unavailable,not available,not available,False,not available,not available,Unavailable,Unavailable,not available,Unavailable,Unavailable,Unavailable,Unavailable,Unavailable,Unavailable,False
2244,Muslim Prayer Room,Salford,Business House,M6 6AH,-2.275455,53.4882152,+44 7590 322949,Unavailable,not available,not available,False,not available,not available,Unavailable,Unavailable,not available,Unavailable,Unavailable,Unavailable,Unavailable,Unavailable,Unavailable,False
2245,Wybourn Islamic Centre,Sheffield,139 Maltravers Rd,S2 5AD,-1.446941,53.3832514,+44 7713 037949,Unavailable,not available,not available,False,not available,not available,https://wybournislamiccentre.org/,info@wybournislamiccentre.org,not available,https://www.facebook.com/people/Wybourn-Islamic-Centre/61556499626881/,Unavailable,https://www.youtube.com/watch?v=qZqx_Ky3iwI,Unavailable,Unavailable,https://wybournislamiccentre.org/contact-us/,False
2246,LGBTQIA+ Orphanage,Cheltenham,15 Lawrence Cl,GL52 6NN,-2.0457872,51.886883,Unavailable,Unavailable,not available,not available,False,not available,not available,Unavailable,Unavailable,not available,Unavailable,Unavailable,Unavailable,Unavailable,Unavailable,Unavailable,False
2247,Muslim Prayer Room,London,"Westminster Hospital, Level 4, in between Zone C &D, Fulham Rd.",SW10 9NH,-0.1813397,51.4839583,Unavailable,Unavailable,not available,not available,False,not available,not available,https://www.chelwest.nhs.uk/your-visit/advice-and-support/chaplaincy-multi-faith,chelwest.chaplaincy@nhs.net,not available,https://www.facebook.com/chelwest,http://www.instagram.com/chelwestft,Unavailable,http://www.twitter.com/chelwestft,http://www.linkedin.com/company/1156849/,https://www.chelwest.nhs.uk/contact,False
2248,Abu Bakr Mosque,Manchester,71 Ardwick Green N,M12 6FX,-2.2226307,53.4715279,Unavailable,Unavailable,not available,not available,False,not available,not available,Unavailable,Unavailable,not available,Unavailable,Unavailable,Unavailable,Unavailable,Unavailable,Unavailable,False
2249,Medina Islamic Education Centre,Clitheroe,26 Holden St,BB7 1LU,-2.3866624,53.8726565,Unavailable,Unavailable,not available,not available,False,not available,not available,Unavailable,Unavailable,not available,Unavailable,Unavailable,Unavailable,Unavailable,Unavailable,Unavailable,False
2250,Friday Prayer (Jummah Salah),Southall,Unavailable,UB1 3HW,-0.3458315999999999,51.5075456,Unavailable,Unavailable,not available,J,False,not available,not available,Unavailable,Unavailable,not available,Unavailable,Unavailable,Unavailable,Unavailable,Unavailable,Unavailable,False
2251,Multiple faith prayer room,Hounslow,"Departures, Heathrow Airport T5A",TW6 2GA,-0.4812513,51.4717055,Unavailable,Unavailable,not available,not available,False,not available,not available,https://www.heathrow.com/at-the-airport/terminal-facilities/multi-faith-prayer-rooms,multifaith@heathrow.com,not available,https://www.facebook.com/HeathrowAirport/,https://www.instagram.com/heathrow_airport/,https://www.youtube.com/user/LHRHeathrow,https://twitter.com/heathrowairport,Unavailable,https://heathrow.com/airline-contact-info,False
2252,Nmc Centre & Masjid,Northwich,6 Church Rd,CW9 5NT,-2.5061199,53.2622905,+44 7943 230030,Unavailable,not available,not available,False,not available,not available,Unavailable,Unavailable,not available,Unavailable,Unavailable,Unavailable,Unavailable,Unavailable,Unavailable,False
2253,Friday Prayer (Jummah Salah),Warrington,"North Cheshire Hospital Nhs Trust, Lovely Ln",WA5 1QG,-2.6102843,53.3943661,Unavailable,Unavailable,not available,J,False,not available,not available,Unavailable,Unavailable,not available,Unavailable,Unavailable,Unavailable,Unavailable,Unavailable,Unavailable,False
2254,Shirley Muslim Association - Southwing SCCA,Croydon,9 Shrublands Ave,CR0 8JD,-0.0307113,51.3689995,+44 7796 933827,Unavailable,not available,not available,False,not available,not available,https://shirleyma.org.uk/,info@shirleyma.org.uk,not available,Unavailable,http://www.instagram.com/smartsportfc,Unavailable,Unavailable,Unavailable,Unavailable,False
2255,Friday Prayer (Jummah Salah),Bridgend,37 Litchard Cross,CF31 1NZ,-3.5726783,51.5198384,Unavailable,Unavailable,not available,J,False,not available,not available,Unavailable,Unavailable,not available,Unavailable,Unavailable,Unavailable,Unavailable,Unavailable,Unavailable,False
2256,Faizan e Makkah Masjid,Bradford,Lilycroft Rd,BD9 5AB,-1.7815071,53.8071491,+44 1274 442663,Unavailable,not available,not available,False,not available,not available,http://www.dawateislami.co.uk/,Unavailable,not available,https://www.facebook.com/ukdawateislamiofficial/,https://www.instagram.com/ukdawateislami/,https://www.youtube.com/@MadaniChannelEnglishLive/live,https://twitter.com/uk_dawateislami,Unavailable,https://www.dawateislami.co.uk/assets/css/module-css/contact-page.css,False
2257,West Leeds Jamia Masjid,Leeds,Town St,LS12 3JG,-1.5970088,53.7970075,+44 7824 635447,Unavailable,not available,not available,False,not available,not available,Unavailable,Unavailable,not available,Unavailable,Unavailable,Unavailable,Unavailable,Unavailable,Unavailable,False
2258,Islamic Centre Milton Keynes,Milton Keynes,Fishermead Blvd,MK6 2AQ,-0.7470928,52.03638,+44 7518 340328,Unavailable,not available,not available,False,not available,not available,https://shahrubanpk.com/index.html,info@slmcfmk.org.uk,not available,Unavailable,Unavailable,Unavailable,Unavailable,Unavailable,https://shahrubanpk.com/contact.html,False
2259,Friday Prayer (Jumu'ah) in Paramount Knitwear,Leicester,Unavailable,Unavailable,-1.1929997,52.6077145,Unavailable,Unavailable,not available,not available,False,not available,not available,Unavailable,Unavailable,not available,Unavailable,Unavailable,Unavailable,Unavailable,Unavailable,Unavailable,False
2260,Al-Aqsa Islamic Centre,Leicester,Balderstone Cl,LE5 4ES,-1.0801853,52.6356079,07966 898423,Unavailable,not available,not available,False,not available,not available,Unavailable,Unavailable,not available,Unavailable,Unavailable,Unavailable,Unavailable,Unavailable,Unavailable,False
2261,Faizan-e-Madina Nottingham,Nottingham,10-14 Oakdale Rd,NG3 7EE,-1.1132951,52.9593464,+44 7876 311712,Unavailable,not available,not available,False,not available,not available,Unavailable,Unavailable,not available,Unavailable,Unavailable,Unavailable,Unavailable,Unavailable,Unavailable,False
2262,Masjid Nuur,Liverpool,Granby St,L8 2XA,-2.9564843,53.391712,Unavailable,Unavailable,not available,not available,False,not available,not available,Unavailable,Unavailable,not available,Unavailable,Unavailable,Unavailable,Unavailable,Unavailable,Unavailable,False
2263,Al-Mustaqeem Masjid,Bradford,4 Central Ave,BD5 0PB,-1.7663811,53.780445,Unavailable,Unavailable,not available,not available,False,not available,not available,Unavailable,Unavailable,not available,Unavailable,Unavailable,Unavailable,Unavailable,Unavailable,Unavailable,False
2264,Masjid Ibraheem,Stoke-on-Trent,53-75 Etruria Vale Rd,ST1 4BF,-2.1893394,53.0194191,+44 7470 731479,Unavailable,not available,not available,False,not available,not available,https://m.facebook.com/people/Masjid-Ibraheem/100069971132924/,Unavailable,not available,//www.facebook.com/,Unavailable,Unavailable,Unavailable,Unavailable,Unavailable,False
2265,Jummah Salah in Golden Lane Community Centre,London,Unavailable,Unavailable,-0.0955278,51.5221797,+44 7951 251363,Unavailable,not available,J,False,not available,not available,https://www.halls4jumuah.org/,halls4jumuah1@gmail.com,not available,Unavailable,Unavailable,Unavailable,Unavailable,Unavailable,https://halls4jumuah.org/contact-us,False
2266,Jummah Salah in Sanctuary,Liverpool,Unavailable,Unavailable,-2.8964363,53.4184981,Unavailable,Unavailable,not available,J,False,not available,not available,Unavailable,Unavailable,not available,Unavailable,Unavailable,Unavailable,Unavailable,Unavailable,Unavailable,False
2267,Muslim Prayer Room - Glasgow Uni,Glasgow,Jarrett Building,G61 1QQ,-4.3180921,55.8994899,Unavailable,Unavailable,not available,not available,False,not available,not available,Unavailable,Unavailable,not available,Unavailable,Unavailable,Unavailable,Unavailable,Unavailable,Unavailable,False
2268,Karimia Mosque,Oldham,Webster St,Unavailable,-2.1121812,53.535276,Unavailable,Unavailable,not available,not available,False,not available,not available,Unavailable,Unavailable,not available,Unavailable,Unavailable,Unavailable,Unavailable,Unavailable,Unavailable,False
2270,Mehfil e shah e wilayat,Leicester,33 Dorothy Rd,LE5 5DR,-1.1008126,52.6331436,Unavailable,Unavailable,not available,not available,False,not available,not available,Unavailable,Unavailable,not available,Unavailable,Unavailable,Unavailable,Unavailable,Unavailable,Unavailable,False
2271,Jamia Al Bilal Mosque,Stockton-on-Tees,30-32 Yarm Rd,TS18 3NG,-1.3230638,54.5595358,Unavailable,Unavailable,not available,not available,False,not available,not available,Unavailable,Unavailable,not available,Unavailable,Unavailable,Unavailable,Unavailable,Unavailable,Unavailable,False
2272,Kilmarnock Central Mosque,Kilmarnock,57 London Rd,KA3 7AH,-4.4870889,55.608069,+44 1563 257860,Unavailable,not available,not available,False,not available,not available,https://www.ayrshiremosque.org.uk/,Unavailable,not available,Unavailable,Unavailable,Unavailable,Unavailable,Unavailable,Unavailable,False
2274,Jummah Salah in Alpha Grove Community Centre,London,Alpha Grove,E14 8LH,-0.023053,51.4986762,Unavailable,Unavailable,not available,J,False,not available,not available,https://www.towerhamletsmosques.co.uk/jumuahtimes/,towerhamletsmosques@gmail.com,not available,http://www.facebook.com/thmuslims,Unavailable,Unavailable,http://www.twitter.com/thmuslims,Unavailable,https://www.towerhamletsmosques.co.uk/contact-us/,False
2275,Madina mosque,Dagenham,689 Green Ln,RM8 1UU,0.1226128,51.5624579,Unavailable,Unavailable,not available,not available,False,not available,not available,Unavailable,Unavailable,not available,Unavailable,Unavailable,Unavailable,Unavailable,Unavailable,Unavailable,False
2276,Cube Foundation,Sheffield,134 Main Rd,S9 5HQ,-1.411193,53.3876551,Unavailable,Unavailable,not available,not available,False,not available,not available,http://www.cubefoundation.org/,info@cubefoundation.org,not available,https://facebook.com/cubefoundation,Unavailable,https://www.youtube.com/@CFDawah,Unavailable,Unavailable,http://cubefoundation.org/contact-us/,False
2278,Potters Bar Islamic Community Centre,Potters Bar,363 Mutton Ln,EN6 3BP,-0.2009507999999999,51.6994,Unavailable,Unavailable,not available,not available,False,not available,not available,https://www.pbicc.org/,info@pbicc.org,not available,Unavailable,Unavailable,Unavailable,Unavailable,Unavailable,Unavailable,False
2279,SMF Community Hub,Cheadle,246 Finney Ln,SK8 3QD,-2.2340226,53.3702994,Unavailable,Unavailable,not available,not available,False,not available,not available,Unavailable,Unavailable,not available,Unavailable,Unavailable,Unavailable,Unavailable,Unavailable,Unavailable,False
2280,Jummah Salah in Whitechapel Sports Centre,London,55 Durward St,E1 5BA,-0.0614741,51.5198306,Unavailable,Unavailable,not available,J,False,not available,not available,https://www.towerhamletsmosques.co.uk/jumuahtimes/,towerhamletsmosques@gmail.com,not available,http://www.facebook.com/thmuslims,Unavailable,Unavailable,http://www.twitter.com/thmuslims,Unavailable,https://www.towerhamletsmosques.co.uk/contact-us/,False
2282,Jamia Muhammadiyah Qadriyah,Bradford,179 Otley Rd,BD3 0HX,-1.7430770999999998,53.8027947,Unavailable,Unavailable,not available,not available,False,not available,not available,Unavailable,Unavailable,not available,Unavailable,Unavailable,Unavailable,Unavailable,Unavailable,Unavailable,False
2283,JUMMAH (Friday Prayers) at Ickenham Village Hall,Uxbridge,33 Swakeleys Rd,UB10 8DG,-0.4458088999999999,51.5646731,Unavailable,Unavailable,not available,J,False,not available,not available,Unavailable,Unavailable,not available,Unavailable,Unavailable,Unavailable,Unavailable,Unavailable,Unavailable,False
2284,Friday Prayer (Jummah Salah),Solihull,"Hospital, Lode Ln",B91 2JL,-1.7742068,52.4175103,Unavailable,Unavailable,not available,J,False,not available,not available,Unavailable,Unavailable,not available,Unavailable,Unavailable,Unavailable,Unavailable,Unavailable,Unavailable,False
2285,Southfields prayer hall (Ackroydon hall),London,Montfort Pl,SW19 6QL,-0.2181816,51.4467213,Unavailable,Unavailable,not available,not available,False,not available,not available,Unavailable,Unavailable,not available,Unavailable,Unavailable,Unavailable,Unavailable,Unavailable,Unavailable,False
2286,Masjid-e-Vali,Blackburn,Preston New Rd,BB2 6PS,-2.5099131,53.7513166,Unavailable,Unavailable,not available,not available,False,not available,not available,Unavailable,Unavailable,not available,Unavailable,Unavailable,Unavailable,Unavailable,Unavailable,Unavailable,False
2287,Friday Prayer,Whitehaven,12 Homewood Rd,CA28 8JG,-3.5631692,54.530244,Unavailable,Unavailable,not available,not available,False,not available,not available,Unavailable,Unavailable,not available,Unavailable,Unavailable,Unavailable,Unavailable,Unavailable,Unavailable,False
2288,Masjid Yousuf,Birmingham,"575, 577 Barrows Ln",B26 3BD,-1.791635,52.4565213,+44 121 630 3563,Unavailable,not available,not available,False,not available,not available,http://masjidyousuf.com/,Unavailable,not available,Unavailable,Unavailable,Unavailable,Unavailable,Unavailable,Unavailable,False
2289,Assahaba Mosque and Islamic Centre,Bristol,Sydenham Ln,BS6 5SQ,-2.5901699,51.4646946,+44 7786 663278,Unavailable,not available,not available,False,not available,not available,https://assahaba-centre.org/,Unavailable,not available,Unavailable,Unavailable,Unavailable,Unavailable,Unavailable,https://assahaba-centre.org/#contact-us,False
2290,Beardwood Musallah,Blackburn,55 Beardwood Brow,BB2 7AT,-2.5122831,53.7581548,+44 7718 654207,Unavailable,not available,not available,False,not available,not available,https://beardwoodmusallah.org/,info@beardwoodmusallah.org,not available,https://www.facebook.com/AxiomThemes-505060569826537/,https://www.instagram.com/axiom_themes/,Unavailable,https://twitter.com/axiom_themes,Unavailable,https://beardwoodmusallah.org/contact/,False
2291,Jummah Salah in Alton Community Centre,Alton,"Alton community centre, Amery St",GU34 1HP,-0.9769655,51.1497046,+44 7810 522928,Unavailable,not available,J,False,not available,not available,Unavailable,Unavailable,not available,Unavailable,Unavailable,Unavailable,Unavailable,Unavailable,Unavailable,False
2292,Masjid,Bolton,Washington St,Unavailable,-2.4487713,53.5722897,Unavailable,Unavailable,not available,not available,False,not available,not available,Unavailable,Unavailable,not available,Unavailable,Unavailable,Unavailable,Unavailable,Unavailable,Unavailable,False
2294,Friday Prayer (Jummah Salah),Wrexham,2XWQ+R6,Unavailable,-3.0118981,53.0470942,Unavailable,Unavailable,not available,J,False,not available,not available,Unavailable,Unavailable,not available,Unavailable,Unavailable,Unavailable,Unavailable,Unavailable,Unavailable,False
2295,Inverness Mosque & Islamic Community & Education Centre,Inverness,1 Portland Pl,IV1 1NE,-4.2305705,57.4833822,+44 7714 499289,Unavailable,not available,not available,False,not available,not available,http://www.invernessmasjid.co.uk/,Unavailable,not available,https://www.facebook.com/Invernessmasjid/,Unavailable,Unavailable,https://twitter.com/InvernessMasjid,Unavailable,Unavailable,False
2296,Jummah Salah in Lewsey Community Centre,Luton,Landrace Rd,LU4 0SW,-0.4967494999999999,51.9024048,Unavailable,Unavailable,not available,J,False,not available,not available,Unavailable,Unavailable,not available,Unavailable,Unavailable,Unavailable,Unavailable,Unavailable,Unavailable,False
2298,"Prayers Room for Muslims - On Request to the cleaner, they will open the door",Brierley Hill,36 Merry Hill,DY5 1SP,-2.1102157,52.4818959,Unavailable,Unavailable,not available,not available,False,not available,not available,Unavailable,Unavailable,not available,Unavailable,Unavailable,Unavailable,Unavailable,Unavailable,Unavailable,False
2299,Friday Prayer (Jummah Salah),Bristol,Southmead Rd,BS10 5NB,-2.5908627,51.4944935,Unavailable,Unavailable,not available,J,False,not available,not available,Unavailable,Unavailable,not available,Unavailable,Unavailable,Unavailable,Unavailable,Unavailable,Unavailable,False
2300,Gulzar-e-Habib Masjid & Islamic Centre Crawley,Crawley,1-2 Pegler Way,RH11 7AG,-0.1912424999999999,51.1156382,+44 7885 277806,Unavailable,not available,not available,False,not available,not available,http://www.crawleycentralmosque.co.uk/,Unavailable,not available,Unavailable,Unavailable,Unavailable,Unavailable,Unavailable,Unavailable,False
2301,Masjid Abu Bakr,Sheffield,Bawtry Rd,S9 1WA,-1.3960347,53.411033,Unavailable,Unavailable,not available,not available,False,not available,not available,http://mabtinsley.com/,Unavailable,not available,Unavailable,https://www.instagram.com/mabtinsley,https://www.youtube.com/@Masjid_Abu_Bakr,Unavailable,Unavailable,Unavailable,False
2302,Abrar Foundation,London,"Abrar House, 45 Crawford Pl",W1H 4LP,-0.1651512,51.5189284,+44 20 7724 3033,Unavailable,not available,not available,False,not available,not available,https://abraronline.net/,Unavailable,not available,Unavailable,Unavailable,Unavailable,Unavailable,Unavailable,Unavailable,False
2303,"Friday Prayer (Jumu'ah) OTM, 1st Floor",Buckingham,Unavailable,Unavailable,-0.9899074,51.9958119,Unavailable,Unavailable,not available,not available,False,not available,not available,https://su.buckingham.ac.uk/organisation/6174/,studentsunion@buckingham.ac.uk,not available,https://www.facebook.com/uniofbuckinghamsu/ ,//instagram.com/isoc_uob,Unavailable,Unavailable,Unavailable,Unavailable,False
2304,Bart's hospital musalla Friday Prayer,London,Little Britain,EC1A 7BX,-0.099926,51.5179543,+44 7506 436693,Unavailable,not available,not available,False,not available,not available,Unavailable,Unavailable,not available,Unavailable,Unavailable,Unavailable,Unavailable,Unavailable,Unavailable,False
2305,Peckham High St Islamic & Cultural Centre,London,"Basement flat 118, 120 Peckham High St",SE15 5SL,-0.066611,51.4741552,+44 20 7635 0088,Unavailable,not available,not available,False,not available,not available,http://www.phsicc.org/,info@phsicc.org,not available,Unavailable,Unavailable,Unavailable,Unavailable,Unavailable,https://www.phsicc.org/contact-us/,False
2306,Blackbird Muslim Community Centre,London,35 Blackbird Hill,NW9 8RS,-0.2626747,51.5647165,Unavailable,Unavailable,not available,not available,False,not available,not available,https://mawaqit.net/en/m/blackbird-hill-muslim-community-centre-london-nw9-8rs-united-kingdom,Unavailable,not available,Unavailable,Unavailable,Unavailable,Unavailable,Unavailable,Unavailable,False
2308,Multi faith prayer room,Baldock,Services,Unavailable,-0.1891524,51.9895255,Unavailable,Unavailable,not available,not available,False,not available,not available,Unavailable,Unavailable,not available,Unavailable,Unavailable,Unavailable,Unavailable,Unavailable,Unavailable,False
2310,Burhani Masjid,Leicester,10 Bath St,LE4 7QD,-1.1227049999999998,52.6606892,Unavailable,Unavailable,not available,not available,False,not available,not available,https://uk.thedawoodibohras.com/our-communities/leicester/,office@fayzehusayni.co.uk,not available,https://www.facebook.com/thedawoodibohras/,https://www.instagram.com/thedawoodibohrasofuk/,https://www.youtube.com/c/TheDawoodiBohrasTDB,https://twitter.com/Bohras_UK,https://www.linkedin.com/company/thedawoodibohras,https://uk.thedawoodibohras.com/contact/,False
2311,Jummah Salah in Prayer room,Portsmouth,Unavailable,PO6 3LY,-1.0699317,50.8502973,023 9228 6408,Unavailable,not available,J,False,not available,not available,Unavailable,Unavailable,not available,Unavailable,Unavailable,Unavailable,Unavailable,Unavailable,Unavailable,False
2312,Arbroath Islamic Community Center,Arbroath,57 Hayshead Rd,DD11 5AT,-2.5792922,56.5669521,Unavailable,Unavailable,not available,not available,False,not available,not available,https://www.arbroathislamiccentre.co.uk/,info@arbroathislamiccentre.co.uk,not available,Unavailable,https://www.instagram.com/arbroathislamiccentre?igsh=OTM5ZDF1N2FnOW4z&utm_source=qr,Unavailable,Unavailable,Unavailable,https://www.arbroathislamiccentre.co.uk/home-1-2,False
2313,Friday Prayer (Jummah Salah),Wakefield,2 Tuke Grove,WF1 4DJ,-1.4882997999999998,53.6924835,Unavailable,Unavailable,not available,J,False,not available,not available,Unavailable,Unavailable,not available,Unavailable,Unavailable,Unavailable,Unavailable,Unavailable,Unavailable,False
2314,Hospital Mosque,Stoke-on-Trent,"The, Lyme Building, Royal Stoke Hospital, LG2",ST4 6QG,-2.2133854,53.0022563,Unavailable,Unavailable,not available,not available,False,not available,not available,Unavailable,Unavailable,not available,Unavailable,Unavailable,Unavailable,Unavailable,Unavailable,Unavailable,False
2317,Aman Association,Enniskillen,"Aman Association, 100 Irvinestown Rd",BT74 6DN,-7.6336902,54.3598534,07855 293807,Unavailable,not available,not available,False,not available,not available,http://facebook.com/amanassociationfermanagh,Unavailable,not available,//www.facebook.com/,Unavailable,Unavailable,Unavailable,Unavailable,Unavailable,False
2318,Zabriya Al Zbiyu Masjid,Newport,45 Chepstow Rd,NP19 8BX,-2.9865546,51.5910566,Unavailable,Unavailable,not available,not available,False,not available,not available,Unavailable,Unavailable,not available,Unavailable,Unavailable,Unavailable,Unavailable,Unavailable,Unavailable,False
2321,Masjid-E-Ali Ibn Abu Talib,Middlesbrough,11 Granville Rd,TS1 3PF,-1.2384444,54.5680586,Unavailable,Unavailable,not available,not available,False,not available,not available,Unavailable,Unavailable,not available,Unavailable,Unavailable,Unavailable,Unavailable,Unavailable,Unavailable,False
2322,Rochdale Community Mosque,Rochdale,213 Yorkshire St,OL12 0DS,-2.1483808,53.6221136,Unavailable,Unavailable,not available,not available,False,not available,not available,http://www.rochdalemosque.org/,info@rochdalemosque.org,not available,Unavailable,Unavailable,Unavailable,Unavailable,Unavailable,Unavailable,False
2323,Maryam Mosque,Middlesbrough,Green Ln,TS5 7RX,-1.2490781,54.5516512,+44 1642 819980,Unavailable,not available,not available,False,not available,not available,https://www.masjidmaryam.co.uk/,info@masjidmaryam.co.uk,not available,https://www.facebook.com/MasjidMaryamOfficial/,https://www.instagram.com/masjidmaryamofficial/,Unavailable,Unavailable,Unavailable,https://masjidmaryam.co.uk/contact-page/,False
2324,Friday Prayer (Jumu'ah),Salford,University Rd,M5 4QW,-2.2754109,53.4883734,+44 7590 322949,Unavailable,not available,not available,False,not available,not available,Unavailable,Unavailable,not available,Unavailable,Unavailable,Unavailable,Unavailable,Unavailable,Unavailable,False
2325,Tees Valley Muslim Community Centre,Stockton-on-Tees,"Pragnell House, Sopwith Cl",TS18 3TT,-1.3251957,54.5471263,Unavailable,Unavailable,not available,not available,False,not available,not available,https://www.facebook.com/TVMCCI/,Unavailable,not available,https://www.facebook.com/login/,Unavailable,Unavailable,Unavailable,Unavailable,https://www.facebook.com/help/637205020878504,False
2326,Unity Centre & Mosque,Oldham,5 Webster St,Unavailable,-2.1122018,53.5352356,Unavailable,Unavailable,not available,not available,False,not available,not available,Unavailable,Unavailable,not available,Unavailable,Unavailable,Unavailable,Unavailable,Unavailable,Unavailable,False
2327,Beacon Mosque,Loughborough,300 Park Rd,LE11 2HL,-1.2101537,52.7557219,+44 7825 357268,Unavailable,not available,not available,False,not available,not available,Unavailable,Unavailable,not available,Unavailable,Unavailable,Unavailable,Unavailable,Unavailable,Unavailable,False
2328,Friday Prayer (Jummah Salah),Cwmbran,J2X3+V8,Unavailable,-2.9966427,51.6496589,Unavailable,Unavailable,not available,J,False,not available,not available,Unavailable,Unavailable,not available,Unavailable,Unavailable,Unavailable,Unavailable,Unavailable,Unavailable,False
2329,Masjid,Manchester,200 Lees St,M18 8QN,-2.1638041,53.4668086,Unavailable,Unavailable,not available,not available,False,not available,not available,Unavailable,Unavailable,not available,Unavailable,Unavailable,Unavailable,Unavailable,Unavailable,Unavailable,False
2330,Prayer & Education Centre of St Ives & Hunts,St. Ives,38 The Broadway,PE27 5BN,-0.07625,52.3253266,+44 7944 238783,Unavailable,not available,not available,False,not available,not available,https://stivesprayerandeducationcentre.org.uk/,info@stivesprayerandeducationcentre.org.uk,not available,https://www.facebook.com/share/169j16GTpx/?mibextid=wwXIfr,Unavailable,Unavailable,Unavailable,Unavailable,https://stivesprayerandeducationcentre.org.uk/contact/,False
2332,Friday Prayer,London,10 Cutcombe Rd,SE5 9RJ,-0.0961345,51.4682697,Unavailable,Unavailable,not available,not available,False,not available,not available,Unavailable,Unavailable,not available,Unavailable,Unavailable,Unavailable,Unavailable,Unavailable,Unavailable,False
2333,Faizan e Madinah & Education Centre,Oldham,Huxley St,OL4 5JX,-2.0873637,53.5382979,+44 7920 475366,Unavailable,not available,not available,False,not available,not available,https://www.facebook.com/FMOldham,Unavailable,not available,//www.facebook.com/,Unavailable,Unavailable,Unavailable,Unavailable,Unavailable,False
2334,Friday Prayer (Jummah Salah),Boston,"Pilgrim Hospital, Sibsey Rd",PE21 9QS,-0.0102965,52.9911962,Unavailable,Unavailable,not available,J,False,not available,not available,Unavailable,Unavailable,not available,Unavailable,Unavailable,Unavailable,Unavailable,Unavailable,Unavailable,False
2335,The Islamic Culture Centre,Peterborough,"Unit 3B, The Courtyard, 27 Norfolk St",PE1 2NP,-0.2465858,52.5824638,+44 7849 959140,Unavailable,not available,not available,False,not available,not available,https://islamicculturecentre.co.uk/,islamic.c.centre@gmail.com,not available,https://www.facebook.com/icc1234,Unavailable,Unavailable,https://twitter.com/icc123456,Unavailable,https://islamicculturecentre.co.uk/contact/,False
2336,Prayer room (Mosque),Manchester,Cleggs Ln,M38 9NJ,-2.4174575,53.5357005,Unavailable,Unavailable,not available,not available,False,not available,not available,Unavailable,Unavailable,not available,Unavailable,Unavailable,Unavailable,Unavailable,Unavailable,Unavailable,False
2337,Friday Prayer in room E202a,Manchester,12 Oxford Rd,M1 5QA,-2.2392433,53.4720939,Unavailable,Unavailable,not available,not available,False,not available,not available,https://www.mmu.ac.uk/student-life/wellbeing/chaplaincy,press@mmu.ac.uk,not available,https://www.facebook.com/manmetuni,https://www.instagram.com/manmetuni/,https://www.youtube.com/@ManMetUni,Unavailable,https://www.linkedin.com/company/manchester-metropolitan-university/,https://mmu.ac.uk/contact/course-enquiry/,False
2338,Ali Reza Islamic Centre,Chelmsford,Regina Rd,CM1 1PE,0.4767692,51.7381403,Unavailable,Unavailable,not available,not available,False,not available,not available,https://essexjamaat.org.uk/,Unavailable,not available,Unavailable,Unavailable,Unavailable,Unavailable,Unavailable,https://www.essexjamaat.org.uk/contact/,False
2339,Jamia Masjid Raza And Educational Centre,Dewsbury,399 Lees Hall Rd,WF12 9HB,-1.6396205,53.671522,+44 7733 143027,Unavailable,not available,not available,False,not available,not available,Unavailable,Unavailable,not available,Unavailable,Unavailable,Unavailable,Unavailable,Unavailable,Unavailable,False
2340,Ladies Jummah Salah in Pakistan Community Centre,Reading,373 London Rd,RG1 3PA,-0.9422171,51.4549062,+44 118 926 9031,Unavailable,not available,J,False,not available,not available,https://directory.wokingham.gov.uk/kb5/wokingham/directory/service.page?id=1-cddakPNC4,pcc-admin@btconnect.com,not available,Unavailable,Unavailable,Unavailable,Unavailable,Unavailable,https://wokingham.gov.uk/contact.page,False
2341,"Jummah Salah (Maybe other Salah too) in Marks Gate Community Hub,",Romford,"Rose Lane Community Centre, Rose Ln",RM6 5NJ,0.1360569,51.585245,07879 854431,Unavailable,not available,J,False,not available,not available,Unavailable,Unavailable,not available,Unavailable,Unavailable,Unavailable,Unavailable,Unavailable,Unavailable,False
2342,Upper Soothill Masjid,Dewsbury,1039 Leeds Rd,WF12 7HY,-1.5936618,53.7159425,Unavailable,Unavailable,not available,not available,False,not available,not available,Unavailable,Unavailable,not available,Unavailable,Unavailable,Unavailable,Unavailable,Unavailable,Unavailable,False
2343,Madani Islamic Academy Online Quran Tajweed Course,Leeds,5 Heath Grove,LS11 8UJ,-1.5714154,53.7763696,07480 676283,Unavailable,not available,not available,False,not available,not available,https://madaniislamicacademy.com/registration-form/,madaniislamicacademy@gmail.com,not available,https://www.facebook.com/qurantajweedcourseonline,https://www.instagram.com/madaniislamicacademy/,https://www.youtube.com/channel/UC73-UFedUdKfG_FMGzmoUXQ,https://twitter.com/Madaniquran,https://www.linkedin.com/in/madani-islamic-academy-016311150/,https://madaniislamicacademy.com/contact-us/,False
2344,Park,Halifax,111 Lister Ln,HX1 5JZ,-1.8744035,53.7220894,Unavailable,Unavailable,not available,not available,False,not available,not available,Unavailable,Unavailable,not available,Unavailable,Unavailable,Unavailable,Unavailable,Unavailable,Unavailable,False
2345,Jummah Salah in New Board Room,London,Fulham Palace Rd,W6 8RF,-0.2196646,51.4868578,+44 20 3311 1056,Unavailable,not available,J,False,not available,not available,https://www.imperial.nhs.uk/patients-and-visitors/help-and-support/chaplaincy-and-faith-services,imperial.web@nhs.net,not available,https://www.facebook.com/ImperialNHS,https://www.instagram.com/imperialnhs/,https://www.youtube.com/channel/UC6GAw85QsfxgGc6-MeU1NhQ,https://twitter.com/ImperialNHS,https://www.linkedin.com/company/imperial-college-healthcare-nhs-trust,https://imperial.nhs.uk/contact-and-find-us,False
2346,Friday Prayer (Jummah Salah),Kilmarnock,"North Ayrshire & Arran N H S T, Kilmarnock Rd",KA2 0BE,-4.5403736,55.6140222,Unavailable,Unavailable,not available,J,False,not available,not available,Unavailable,Unavailable,not available,Unavailable,Unavailable,Unavailable,Unavailable,Unavailable,Unavailable,False
2347,Pinner Hall friday mosque,Pinner,Chapel Ln,HA5 1AA,-0.3840283,51.5932407,Unavailable,Unavailable,not available,not available,False,not available,not available,Unavailable,Unavailable,not available,Unavailable,Unavailable,Unavailable,Unavailable,Unavailable,Unavailable,False
2348,Muslim Prayer Room,Liverpool,Unavailable,Unavailable,-2.8945411,53.3909582,Unavailable,Unavailable,not available,not available,False,not available,not available,Unavailable,Unavailable,not available,Unavailable,Unavailable,Unavailable,Unavailable,Unavailable,Unavailable,False
2349,Kingsbury Islamic Learning Centre,Edgware,"36, South Parade, Mollison Way",HA8 5QL,-0.278541,51.597747,+44 7443 473114,Unavailable,not available,not available,False,not available,not available,http://www.kicc.uk/,Unavailable,not available,Unavailable,Unavailable,Unavailable,Unavailable,Unavailable,https://www.kicc.uk/contact/,False
2350,MASAB,Wednesbury,"One Community Organisation, Access House, Great Western St",WS10 7LE,-2.0274205,52.5503832,+44 20 3137 9930,Unavailable,not available,not available,False,not available,not available,http://masab.co.uk/,masab.co.uk@gmail.com,not available,Unavailable,Unavailable,Unavailable,Unavailable,Unavailable,https://masab.co.uk/contact-us/,False
2351,lkhlass Masjid,Manchester,Halliwell Ln,M8 9FR,-2.2474064,53.5079714,Unavailable,Unavailable,not available,not available,False,not available,not available,Unavailable,Unavailable,not available,Unavailable,Unavailable,Unavailable,Unavailable,Unavailable,Unavailable,False
2352,Faizan-e-Madinah (Dawateislami),Bolton,42-48 Cannon St,BL3 5AP,-2.4423196,53.5717742,+44 7809 741786,Unavailable,not available,not available,False,not available,not available,https://bolton.faizanemadinah.co.uk/,Unavailable,not available,Unavailable,Unavailable,Unavailable,Unavailable,Unavailable,Unavailable,False
2353,Masjid Al-Salaam (Jummah & Weekends only),Birmingham,Unavailable,Unavailable,-1.8895257,52.4771827,Unavailable,Unavailable,not available,J,False,not available,not available,https://www.islaminaction.org/the-retreat,info@islaminaction.org,not available,Unavailable,Unavailable,Unavailable,Unavailable,Unavailable,Unavailable,False
2354,Rayners Lane Islamic Centre,Harrow,16A Village Way E,HA2 7LU,-0.3702002,51.5775538,Unavailable,Unavailable,not available,not available,False,not available,not available,Unavailable,Unavailable,not available,Unavailable,Unavailable,Unavailable,Unavailable,Unavailable,Unavailable,False
2356,Haverfordwest Mosque,Haverfordwest,1 Cherry Grove,SA61 2NZ,-4.965414099999999,51.8047069,+44 7595 998350,Unavailable,not available,not available,False,not available,not available,https://haverfordwestmosque.org.uk/,info@haverfordwestmosque.org.uk,not available,Unavailable,Unavailable,https://www.youtube.com/channel/UC-_yXual70JThymOZeblqOw/featured,Unavailable,Unavailable,https://haverfordwestmosque.org.uk/contact/,False
2357,Masjid Ibn Seereen,Bristol,"9, 13 Lower Ashley Rd",BS2 9QA,-2.5787571,51.4665769,Unavailable,Unavailable,not available,not available,False,not available,not available,https://www.islaminbristol.com/,Unavailable,not available,https://www.facebook.com/IslaminBristol-106086298106003,https://www.instagram.com/islaminbristol/,Unavailable,https://twitter.com/islaminbristol,Unavailable,https://www.islaminbristol.com/contact-us/,False
2358,Friday Prayer (Jummah Salah),Gloucester,Great Western Rd,GL1 3NN,-2.2306707,51.8666029,Unavailable,Unavailable,not available,J,False,not available,not available,Unavailable,Unavailable,not available,Unavailable,Unavailable,Unavailable,Unavailable,Unavailable,Unavailable,False
2359,Prevent Security Limited,Hayes,23a Kenilworth Gardens,UB4 0AY,-0.4198175999999999,51.5235701,Unavailable,Unavailable,not available,not available,False,not available,not available,Unavailable,Unavailable,not available,Unavailable,Unavailable,Unavailable,Unavailable,Unavailable,Unavailable,False
2361,Al-Hafiz Academy,Stoke-on-Trent,3 Spring Garden Rd,ST3 2QN,-2.1351185,52.9835084,+44 7982 196566,Unavailable,not available,not available,False,not available,not available,https://m.facebook.com/people/Al-Hafiz-Academy/100064147715659/,Unavailable,not available,//www.facebook.com/,Unavailable,Unavailable,Unavailable,Unavailable,Unavailable,False
2362,Wirral Deen Centre,Birkenhead,371-375 Borough Rd,CH42 0HA,-3.0324632,53.385343,+44 7525 655618,Unavailable,not available,not available,False,not available,not available,http://www.wirraldeencentre.org.uk/,info@wirraldeencentre.org.uk,not available,Unavailable,Unavailable,Unavailable,Unavailable,Unavailable,http://www.wirraldeencentre.org.uk/contact/,False
2363,Dar-Ul-Munawar Ghamkol Sharif,Rochdale,Derby St,OL11 1LS,-2.1506463,53.6083124,+44 1706 661811,Unavailable,not available,not available,False,not available,not available,https://rochdalemilaadcommittee.com/,mail@madniaqa.net,not available,https://www.facebook.com/RochdaleMilaadCommittee,Unavailable,https://www.youtube.com/channel/UC88P-nHJfFjGqlYbpS0-s7w,Unavailable,Unavailable,Unavailable,False
2364,Stanley Street Masjid,Wakefield,8 Stanley St,WF1 4NB,-1.4888649,53.6841817,Unavailable,Unavailable,not available,not available,False,not available,not available,Unavailable,Unavailable,not available,Unavailable,Unavailable,Unavailable,Unavailable,Unavailable,Unavailable,False
2365,beeston mandia central,Leeds,Harlech Grove,Unavailable,-1.5524871,53.7727783,Unavailable,Unavailable,not available,not available,False,not available,not available,Unavailable,Unavailable,not available,Unavailable,Unavailable,Unavailable,Unavailable,Unavailable,Unavailable,False
2366,Friday Prayer (Jummah Salah),Huntingdon,Hitchingbrooke,PE29 6NT,-0.2029694,52.3332959,Unavailable,Unavailable,not available,J,False,not available,not available,Unavailable,Unavailable,not available,Unavailable,Unavailable,Unavailable,Unavailable,Unavailable,Unavailable,False
2367,High Hazels Community Mosque,Sheffield,285A Main Rd,S9 4QD,-1.408672,53.3851553,Unavailable,Unavailable,not available,not available,False,not available,not available,Unavailable,Unavailable,not available,Unavailable,Unavailable,Unavailable,Unavailable,Unavailable,Unavailable,False
2368,Friday Prayer (Jumu'ah),London,Unavailable,N4 2BP,-0.0914601999999999,51.5700756,Unavailable,Unavailable,not available,not available,False,not available,not available,Unavailable,Unavailable,not available,Unavailable,Unavailable,Unavailable,Unavailable,Unavailable,Unavailable,False
2369,Old Hill Masjid & Community Centre,Cradley Heath,221 Halesowen Rd,B64 6JE,-2.0667387,52.4747322,+44 1384 566203,Unavailable,not available,not available,False,not available,not available,http://oldhillmasjid.org/,info@oldhillmasjid.org,not available,https://en-gb.facebook.com/OldHillMasjid/,https://www.instagram.com/old.hill.masjid/,Unavailable,Unavailable,Unavailable,Unavailable,False
2370,Sheffield Grand Mosque,Sheffield,Grimesthorpe Rd,S4 8DE,-1.4408388,53.4047342,+44 114 322 0802,Unavailable,not available,not available,False,not available,not available,http://www.sheffieldgrandmosque.org/,iinfo@sheffieldgrandmosque.org,not available,Unavailable,https://www.instagram.com,Unavailable,https://twitter.com,Unavailable,https://sheffieldgrandmosque.co.uk/contact/,False
2371,"Jummah Salah in Prayer Room (in Faith and Community Centre, Level 1)",Birmingham,"Birmingham QE Hospital, Mindelsohn Way",B15 2QZ,-1.9415349,52.4515071,+44 121 371 4574,Unavailable,not available,J,False,not available,not available,Unavailable,Unavailable,not available,Unavailable,Unavailable,Unavailable,Unavailable,Unavailable,Unavailable,False
